objt_id,occu_year,occu_mt,occu_de,occu_tm,occu_day,occu_date,end_year,end_mt,end_de,end_tm,adres,rn_adres,resn,ar,amount,ctprvn_cd,sgg_cd,emd_cd,x,y,latitude,longitude
16,2011,01,22,2346,토요일,2011-01-22,2011,01,23,0010,강원도 강릉시 죽헌동 산108-41,,담뱃불실화,0.3,480,42,42150,42150133,14343202.5,4547488.405,37.773619,128.8472273
26,2011,01,31,0915,월요일,2011-01-31,2011,02,01,0810,강원도 양양군 강현면 금풍리 산37,,주택화재비화,3.5,27343,42,42830,42830350,14315609.91,4595268.602,38.112114,128.5993637
29,2011,01,31,1814,월요일,2011-01-31,2011,02,01,1030,강원도 양양군 현남면 상월천리 산92,,주택화재비화,30,786740,42,42830,42830340,14328611.86,4570237.046,37.9349891,128.7161778
30,2011,02,01,0915,화요일,2011-02-01,2011,02,01,1038,강원도 강릉시 대전동 산147-3,,입산자실화추정,0.2,264,42,42150,42150134,14342966.27,4548478.373,37.7806481,128.8451053
48,2011,02,11,1750,금요일,2011-02-11,2011,02,11,2020,강원도 홍천군 내촌면 물걸리 산5,,입산자실화,0.3,4864,42,42720,42720330,14268483.85,4551213.599,37.8000489,128.1759286
69,2011,03,09,1315,수요일,2011-03-09,2011,03,09,1750,강원도 영월군 영월읍 정양리 산1-1,,도로공사쓰레기소각,2,62854,42,42750,42750250,14306070.35,4461527.966,37.1607319,128.5136497
71,2011,03,09,1720,수요일,2011-03-09,2011,03,09,1830,강원도 춘천시 북산면 조교리 산439,,주택화재비화,0.3,6563,42,42110,42110380,14245068,4569824.159,37.932058,127.965667
80,2011,03,11,1343,금요일,2011-03-11,2011,03,11,1455,강원도 횡성군 우천면 정금리 산21,,입산자실화추정,0.1,5487,42,42730,42730310,14262858.66,4510981.854,37.513936,128.1254882
102,2011,03,14,1940,월요일,2011-03-14,2011,03,14,2100,강원도 영월군 영월읍 정양리 산80,,입산자실화추정,0.1,64,42,42750,42750250,14306779.17,4460143.101,37.1508168,128.520017
112,2011,03,18,1200,금요일,2011-03-18,2011,03,18,1250,강원도 홍천군 홍천읍 연봉리 산9-1,,입산자실화추정,0.2,5018,42,42720,42720250,14236327.81,4533441.804,37.673823,127.8871472
126,2011,03,24,1300,목요일,2011-03-24,2011,03,24,1415,강원도 화천군 화천읍 풍산리 산240,,농산폐기물소각,0.7,13004,42,42790,42790250,14221784.71,4598348.748,38.2198155,127.7724077
154,2011,04,01,1050,금요일,2011-04-01,2011,04,01,1353,강원도 정선군 정선읍 신월리 산18,,농산폐기물소각,0.3,26858,42,42770,42770250,14326158.92,4491369.311,37.3740654,128.6941137
161,2011,04,01,1415,금요일,2011-04-01,2011,04,01,1645,강원도 삼척시 노곡면 상군천리 산13,,주택화재비화,0.5,27545,42,42230,42230330,14373683.3,4484272.389,37.3230664,129.1225
171,2011,04,05,1108,화요일,2011-04-05,2011,04,05,1140,강원도 춘천시 남면 관천리 산48,,입산자실화추정,0.1,6285,42,42110,42110340,14195560.77,4541052.598,37.7279324,127.5209141
177,2011,04,06,1450,수요일,2011-04-06,2011,04,06,1600,강원도 철원군 철원읍 화지리 산52,,입산자실화추정,0.2,319,42,42780,42780250,14160782.46,4609025.244,38.2092982,127.2085172
180,2011,04,06,1627,수요일,2011-04-06,2011,04,06,1700,강원도 강릉시 왕산면 도마리 산456-1,,입산자실화,0.1,3012,42,42150,42150320,14341436.34,4531077.331,37.6570633,128.830467
182,2011,04,09,1230,토요일,2011-04-09,2011,04,09,1257,강원도 양구군 동면 덕곡리 산44-2,,입산자실화추정,0.04,1257,42,42800,42800320,14252719.52,4606657.155,38.192571,128.0344069
183,2011,04,09,1255,토요일,2011-04-09,2011,04,09,1340,강원도 양구군 남면 창리 산72,,쓰레기소각,0.03,3068,42,42800,42800310,14253055.61,4589973.57,38.0746856,128.0374242
185,2011,04,10,1219,일요일,2011-04-10,2011,04,10,1308,강원도 화천군 하남면 원천리 산16,,주택난방용 불씨비화,0.1,3504,42,42790,42790320,14212244,4591095.968,38.0826269,127.6708052
196,2011,04,13,1502,수요일,2011-04-13,2011,04,13,1750,강원도 양양군 손양면 삽존리 산57,,입산자실화추정,4,114771,42,42830,42830320,14318515.72,4584390.462,38.0351862,128.6254657
198,2011,04,13,1605,수요일,2011-04-13,2011,04,13,1710,강원도 삼척시 도계읍 고사리 산18,,어린이불장난,0.2,8151,42,42230,42230250,14367651.56,4478510.619,37.2822084,129.0668492
199,2011,04,13,1650,수요일,2011-04-13,2011,04,13,1750,강원도 영월군 수주면 운학리 1683-2,,쓰레기소각,0.15,6155,42,42750,42750370,14268929.03,4484892.493,37.32782020000001,128.1800045
200,2011,04,13,2340,수요일,2011-04-13,2011,04,14,0230,강원도 춘천시 신동면 증리 산107-28,,입산자실화추정,0.5,8757,42,42110,42110330,14218484.25,4552753.93,37.81101160000001,127.7268572
204,2011,04,16,1825,토요일,2011-04-16,2011,04,16,1930,강원도 춘천시 남산면 강촌리 산37-1,,입산자실화추정,0.1,8213,42,42110,42110400,14211722.48,4553869.675,37.8189305,127.666115
207,2011,04,17,1240,일요일,2011-04-17,2011,04,17,1420,강원도 인제군 남면 신월리 산36,,입산자실화,0.3,9857,42,42810,42810310,14257538.57,4582366.171,38.0208685,128.0776946
209,2011,04,17,1422,일요일,2011-04-17,2011,04,17,1508,강원도 횡성군 청일면 고시리 산14,,농산폐기물소각,0.2,4340,42,42730,42730350,14271311.19,4520480.734,37.5816057,128.2014087
216,2011,04,20,1415,수요일,2011-04-20,2011,04,20,1510,강원도 횡성군 청일면 춘당리 산19,,농산폐기물소각,0.6,11051,42,42730,42730350,14265404.49,4525332.94,37.6161415,128.1483482
227,2011,05,14,1430,토요일,2011-05-14,2011,05,14,1509,강원도 철원군 동송읍 오지리 1113-14,,쓰레기소각,0.1,1496,42,42780,42780259,14162110.43,4604713.702,38.17885810000001,127.220446
230,2011,06,12,1425,일요일,2011-06-12,2011,06,12,1830,강원도 삼척시 마평동 산78-6,,입산자실화추정,0.1,6300,42,42230,42230115,14374792.88,4498455.947,37.4246337,129.1310039
241,2012,01,11,1515,수요일,2012-01-11,2012,01,11,1650,강원도 홍천군 홍천읍 하오안리 산30-2,,등산객실화,0.03,2177,42,42720,42720250,14232801.52,4531659.394,37.6611492,127.8554736
244,2012,02,05,1528,일요일,2012-02-05,2012,02,05,1649,강원도 고성군 거진읍 거진리 산75-1,,입산자실화,0.2,6949,42,42820,42820253,14299749.38,4643532.069,38.4524466,128.4568918
245,2012,02,16,1405,목요일,2012-02-16,2012,02,16,1515,강원도 원주시 소초면 둔둔리 산115-3,,주택화재비화,0.1,4991,42,42130,42130310,14247307.4,4501655.654,37.4490132,127.9879276
252,2012,02,28,1440,화요일,2012-02-28,2012,02,28,1440,강원도 양구군 동면 팔랑리 631,,성묘객실화,0.06,1328,42,42800,42800320,14256715.77,4609538.074,38.2129082,128.0703076
259,2012,03,12,1515,월요일,2012-03-12,2012,03,12,1640,강원도 횡성군 갑천면 포동리 산40-2,,주택화재비화,0.1,5186,42,42730,42730340,14261424.57,4514337.498,37.5378598,128.1125942
271,2012,03,30,1726,금요일,2012-03-30,2012,03,30,1900,강원도 양구군 양구읍 웅진리 산1-37,,주택화재비화,0.1,6486,42,42800,42800250,14242634.55,4585542.082,38.0407762,127.9462402
290,2012,04,09,1629,월요일,2012-04-09,2012,04,09,1820,강원도 춘천시 동면 품걸리 산1-1,,산나물채취객실화,0.02,2033,42,42110,42110310,14238563.38,4560026.225,37.8662945,127.9178624
295,2012,04,15,1520,일요일,2012-04-15,2012,04,15,1640,강원도 평창군 진부면 상진부리 산159,,담뱃불실화,0.12,8990,42,42760,42760360,14315240.39,4536995.491,37.6727466,128.5576669
296,2012,04,15,2017,일요일,2012-04-15,2012,04,15,2150,강원도 삼척시 도계읍 신리 산138-7,,벌채작업에 전선줄 스파크,0.03,2267,42,42230,42230250,14367268.25,4477471.585,37.1887039,129.0958151
299,2012,04,17,1520,화요일,2012-04-17,2012,04,17,1615,강원도 영월군 북면 문곡리 산159,,건축물화재비화,0.1,5314,42,42750,42750330,14295476.93,4485990.893,37.212342,128.4212903
305,2012,04,18,1609,수요일,2012-04-18,2012,04,18,1726,강원도 철원군 갈말읍 문혜리 산277,,입산자실화,0.15,4732,42,42780,42780256,14180753.88,4604258.503,38.17759970000001,127.3957373
308,2012,04,19,1416,목요일,2012-04-19,2012,04,19,2300,강원도 홍천군 화촌면 내삼포리 산51,,임산물채취객실화,6,144481,42,42720,42720310,14241804,4547020.693,37.7352557,127.9850021
310,2012,04,19,1500,목요일,2012-04-19,2012,04,19,1840,강원도 횡성군 청일면 유동리 산49,,입산자실화,1.5,68215,42,42730,42730350,14270197.32,4517817.219,37.5919631,128.1811924
311,2012,04,20,1750,금요일,2012-04-20,2012,04,20,1840,강원도 영월군 주천면 신일리 산119,,쓰레기소각,0.05,3974,42,42750,42750360,14277732.3,4473969.85,37.2654071,128.2401146
313,2012,04,24,1433,화요일,2012-04-24,2012,04,24,1520,강원도 동해시 귀운동 산74,,입산자실화,0.01,8196,42,42170,42170119,14366403.63,4520149.26,37.46734410000001,129.0746383
314,2012,04,30,1015,월요일,2012-04-30,2012,04,30,1155,강원도 춘천시 동산면 군자리 산172,,입산자실화,0.01,7427,42,42110,42110320,14222216.25,4544586.501,37.75302370000001,127.7603815
316,2012,05,01,1410,화요일,2012-05-01,2012,05,01,1630,강원도 삼척시 가곡면 탕곡리 산41,,입산자실화,0.12,5549,42,42230,42230350,14378228.3,4458585.78,37.1733609,129.2158973
319,2012,05,06,1254,일요일,2012-05-06,2012,05,06,1620,강원도 화천군 화천읍 신읍리 산252,,입산자실화,0.1,3759,42,42790,42790250,14220606.89,4592534.261,38.2079929,127.7236573
324,2012,05,06,1355,일요일,2012-05-06,2012,05,06,1445,강원도 원주시 호저면 대덕리 산77-20,,입산자실화,0.05,1976,42,42130,42130320,14239027.82,4504450.826,37.4220096,127.9451362
325,2012,05,06,1442,일요일,2012-05-06,2012,05,06,1709,강원도 홍천군 화촌면 구성포리 산77,,입산자실화,0.01,2255,42,42720,42720310,14242229.42,4546394.478,37.7658618,127.9401644
329,2012,05,07,1454,월요일,2012-05-07,2012,05,07,1615,강원도 철원군 갈말읍 지경리 산5,,입산자실화,0.05,4962,42,42780,42780256,14170131.52,4598207.188,38.2160649,127.3599177
330,2012,05,07,1538,월요일,2012-05-07,2012,05,07,1740,강원도 평창군 봉평면 진조리 산185-6,,입산자실화,0.1,16034,42,42760,42760340,14291599.33,4530791.457,37.5521603,128.3411694
336,2012,05,23,0540,수요일,2012-05-23,2012,05,23,0840,강원도 화천군 상서면 노동리 산1,,입산자실화,0.04,0,42,42790,42790330,14205614.85,4600095.345,38.1662326,127.685013
343,2012,05,26,1531,토요일,2012-05-26,2012,05,26,1720,강원도 평창군 미탄면 창리 323 외 1,,낙뢰,0.2,0,42,42760,42760310,14308818.85,4481862.581,37.3464363,128.5001452
344,2012,05,27,1424,일요일,2012-05-27,2012,05,27,1620,강원도 영월군 남면 북쌍리 399,,낙뢰,0.1,0,42,42750,42750340,14296736.84,4461894.5,37.2244704,128.3999919
345,2012,05,27,1610,일요일,2012-05-27,2012,05,27,1840,강원도 홍천군 화촌면 장평리 산64,,낙뢰,0.01,1189,42,42720,42720310,14242099.72,4547448.739,37.71978,128.1009464
346,2012,05,27,1750,일요일,2012-05-27,2012,05,27,1920,강원도 삼척시 미로면 고천리 594,,낙뢰,0.01,0,42,42230,42230340,14365914.2,4499229.041,37.4301497,129.0512449
350,2012,05,28,1032,월요일,2012-05-28,2012,05,28,1250,강원도 홍천군 동면 덕치리 산14,,낙뢰,0.07,4403,42,42720,42720350,14241787.04,4533230.068,37.70831829999999,127.9412751
351,2012,05,28,1218,월요일,2012-05-28,2012,05,28,1440,강원도 정선군 여량면 유천리 270-1,,낙뢰,0.01,0,42,42770,42770370,14332631.9,4499572.032,37.5019304,128.7080385
353,2012,05,28,1317,월요일,2012-05-28,2012,05,28,1510,강원도 횡성군 갑천면 병지방리 산34,,낙뢰,0.01,1683,42,42730,42730340,14255157.23,4525851.538,37.6172496,128.0626177
356,2012,05,28,1719,월요일,2012-05-28,2012,05,28,2010,강원도 홍천군 화촌면 성산리 산89,,낙뢰,0.1,5176,42,42720,42720310,14244005.45,4543697.887,37.7984129,127.9299716
358,2012,05,29,1128,화요일,2012-05-29,2012,05,29,1335,강원도 원주시 부론면 정산리 산114-1,,낙뢰,0.01,945,42,42130,42130350,14222547.97,4474141.247,37.1929405,127.7994059
363,2012,05,30,0530,수요일,2012-05-30,2012,05,30,1730,강원도 홍천군 화촌면 장평리 산64,,낙뢰,0.1,0,42,42720,42720310,14242099.72,4547448.739,37.71978,128.1009464
365,2012,05,30,0800,수요일,2012-05-30,2012,05,30,1405,강원도 홍천군 동면 후동리 149-1,,낙뢰,0.1,0,42,42720,42720350,14241968.56,4531536.62,37.6357798,127.9428547
366,2012,05,30,0910,수요일,2012-05-30,2012,05,30,0950,강원도 양구군 양구읍 고대리 산58,,낙뢰,0.01,256,42,42800,42800250,14247347.78,4600393.527,38.1493455,127.9871229
382,2012,06,14,2130,목요일,2012-06-14,2012,06,15,0300,강원도 춘천시 동면 장학리 산10-1,,입산자실화,0.05,4323,42,42110,42110310,14225632.67,4565957.635,37.9128787,127.7625295
385,2012,06,19,1117,화요일,2012-06-19,2012,06,19,1530,강원도 춘천시 남면 박암리 산85-1,,입산자실화,0.1,8452,42,42110,42110340,14199390.09,4543530.558,37.7240709,127.5400238
386,2012,06,22,1300,금요일,2012-06-22,2012,06,22,1630,강원도 횡성군 서원면 유현리 산23,,작업장실화,0.7,16506,42,42730,42730370,14239473.83,4508271.848,37.515885,127.885028
398,2012,06,29,0600,금요일,2012-06-29,2012,06,29,0935,강원도 원주시 부론면 노림리 산97-7,,입산자실화,0.2,5432,42,42130,42130350,14222442.1,4475106.134,37.2578783,127.7624397
411,2012,10,14,1428,일요일,2012-10-14,2012,10,14,1515,강원도 속초시 설악동 산23,,입산자실화,0.01,727,42,42210,42210112,14304265.49,4604427.939,38.1626862,128.4849533
416,2012,10,21,1312,일요일,2012-10-21,2012,10,21,1505,강원도 원주시 문막읍 포진리 산65-1,,입산자실화,0.03,939,42,42130,42130250,14228199.01,4485105.946,37.3010202,127.8231336
421,2012,11,27,1230,화요일,2012-11-27,2012,11,27,1320,강원도 춘천시 신동 산13-4,,입산자실화,0.01,0,42,42110,42110128,14218886.02,4570510.964,37.9342278,127.7328189
423,2012,12,26,1230,수요일,2012-12-26,2012,12,26,1730,강원도 삼척시 가곡면 오목리 산41 외 1,,쓰레기소각,0.2,0,42,42230,42230350,14378228.3,4458585.78,37.168684,129.1853911
427,2013,01,12,1640,토요일,2013-01-12,2013,01,12,1850,강원도 양양군 강현면 용호리 산88,,쓰레기소각,0.1,2507,42,42830,42830350,14317220.21,4597646.658,38.1287896,128.6137773
459,2013,03,04,1227,월요일,2013-03-04,2013,03,04,1400,강원도 삼척시 근덕면 동막리 산587-2,,쓰레기소각,0.2,10189,42,42230,42230310,14386578.58,4487086.787,37.3434088,129.2364416
475,2013,03,06,1510,수요일,2013-03-06,2013,03,06,1710,강원도 춘천시 남산면 산수리 산143,,농산폐기물소각,0.05,7697,42,42110,42110400,14211739.96,4537259.768,37.7009254,127.6664853
481,2013,03,08,1213,금요일,2013-03-08,2013,03,08,1430,강원도 양양군 현남면 하월천리 산270,,쓰레기소각,1,42008,42,42830,42830340,14330186.83,4569013.949,37.9150694,128.7159285
490,2013,03,09,1315,토요일,2013-03-09,2013,03,09,1420,강원도 춘천시 북산면 오항리 산19,,쓰레기소각,0.3,16708,42,42110,42110380,14237513.35,4577660.848,37.9873403,127.8977862
517,2013,03,11,1250,월요일,2013-03-11,2013,03,11,1330,강원도 양구군 양구읍 군량리 산86,,농산폐기물소각,0.1,2756,42,42800,42800250,14245561.78,4602714.772,38.1646853,127.9702405
526,2013,03,16,1240,토요일,2013-03-16,2013,03,16,1055,강원도 양양군 강현면 방축리 산54,,농산폐기물소각,0.2,18390,42,42830,42830350,14315865.39,4596027.648,38.1174778,128.6016368
541,2013,03,23,1438,토요일,2013-03-23,2013,03,23,1540,강원도 원주시 지정면 안창리 산19-1,,성묘객실화,0.1,2788,42,42130,42130330,14225259.76,4488529.204,37.3584987,127.7885642
551,2013,03,27,1437,수요일,2013-03-27,2013,03,27,1650,강원도 춘천시 남산면 강촌리 산41-3,,농산폐기물소각,4,156231,42,42110,42110400,14210814.83,4553151.706,37.8137835,127.6578965
552,2013,03,27,1602,수요일,2013-03-27,2013,03,27,1630,강원도 홍천군 홍천읍 희망리 산52-4,,담뱃불실화,0.1,4872,42,42720,42720250,14235557.2,4536755.778,37.6973007,127.8801503
555,2013,03,28,0220,목요일,2013-03-28,2013,03,28,0245,강원도 강릉시 교동 산196-2,,방화 추정,0.02,346,42,42150,42150110,14347714.35,4545731.373,37.761025,128.8876884
574,2013,04,01,1420,화요일,2013-04-01,2013,04,01,1510,강원도 춘천시 동면 만천리 산14-1,,입산자실화,0.01,1445,42,42110,42110310,14225245.26,4562433.64,37.879986,127.7875548
632,2013,04,18,1840,목요일,2013-04-18,2013,04,19,0730,강원도 홍천군 서면 팔봉리 산225,,입산자실화,0.1,25046,42,42720,42720370,14214970.79,4536574.18,37.696109,127.6949633
634,2013,04,19,1109,금요일,2013-04-19,2013,04,19,1150,강원도 홍천군 남면 신대리 산240,,입산자실화,0.1,3114,42,42720,42720360,14225959.18,4523334.353,37.6018146,127.7939777
636,2013,04,27,1145,토요일,2013-04-27,2013,04,27,1330,강원도 양양군 현남면 북분리 산114-1,,입산자실화,0.3,14876,42,42830,42830340,14330884.24,4576578.863,37.9798615,128.7365946
637,2013,04,29,0925,월요일,2013-04-29,2013,04,29,1020,강원도 태백시 철암동 산72-2,,쓰레기소각,0.07,1549,42,42190,42190104,14363966.49,4457271.157,37.130415,129.0348589
638,2013,04,30,1205,화요일,2013-04-30,2013,04,30,1530,강원도 삼척시 신기면 안의리 산157,,입산자실화,0.8,56023,42,42230,42230360,14369207.88,4484562.182,37.3264445,129.0808222
639,2013,05,04,1233,토요일,2013-05-04,2013,05,04,1330,강원도 홍천군 홍천읍 하오안리 산17-2,,입산자실화,0.1,2826,42,42720,42720250,14233706.93,4533442.863,37.6736257,127.8634688
644,2013,05,06,0127,월요일,2013-05-06,2013,05,06,0430,강원도 춘천시 동면 만천리 산14,,입산자실화,0.5,5717,42,42110,42110310,14225307.71,4562269.244,37.87936,127.7885655
649,2013,05,06,1450,월요일,2013-05-06,2013,05,06,1619,강원도 춘천시 동면 지내리 산10,,입산자실화,0.1,7663,42,42110,42110310,14224763.98,4568317.009,37.9212909,127.7833679
652,2013,05,08,1110,수요일,2013-05-08,2013,05,07,1240,강원도 속초시 설악동 산41,,입산자실화,0.01,3461,42,42210,42210112,14300850.98,4600063.646,38.1626862,128.4849533
653,2013,05,08,1235,수요일,2013-05-08,2013,05,07,1440,강원도 횡성군 강림면 강림리 산148,,담뱃불실화,0.2,9251,42,42730,42730380,14264854.9,4489176.745,37.3608239,128.1430016
658,2013,05,12,1400,일요일,2013-05-12,2013,05,12,1530,강원도 삼척시 미로면 하거노리 산141,,입산자실화,0.1,7271,42,42230,42230340,14371793.77,4496957.141,37.4138548,129.1039488
661,2013,05,14,0843,화요일,2013-05-14,2013,05,14,1033,강원도 화천군 화천읍 동촌리 산55,,입산자실화,0.02,5549,42,42790,42790250,14225791.28,4599625.721,38.1657827,127.8290531
665,2013,05,16,1116,목요일,2013-05-16,2013,05,16,1210,강원도 홍천군 남면 화전리 산49,,입산자실화,0.05,5239,42,42720,42720360,14221158.33,4525151.545,37.61579220000001,127.7507781
666,2013,05,17,2230,금요일,2013-05-17,2013,05,18,0030,강원도 춘천시 서면 덕두원리 산70,,입산자실화,0.02,599,42,42110,42110350,14211634.54,4558378.912,37.851543,127.6646964
670,2013,06,07,1502,금요일,2013-06-07,2013,06,07,1630,강원도 춘천시 동면 만천리 1002-39임,,입산자실화 추정,0.02,272,42,42110,42110310,14224208.47,4562294.513,37.875988,127.7888247
673,2013,06,11,1555,화요일,2013-06-11,2013,06,11,1920,강원도 양구군 남면 청리 산112,,입산자실화,0.01,1693,42,42800,42800310,14254266.24,4594364.376,38.1054925,128.0482393
676,2013,08,11,1655,일요일,2013-08-11,2013,08,12,0838,강원도 삼척시 가곡면 풍곡리 산128-63,,낙뢰 추정,0.5,0,42,42230,42230350,14380882.4,4448397.043,37.0945682,129.1670415
677,2013,08,14,1755,수요일,2013-08-14,2013,08,15,0715,강원도 삼척시 노곡면 중마읍리 산88-2,,원인미상,0.3,14989,42,42230,42230330,14382372.68,4476193.501,37.26556679999999,129.1992586
692,2013,10,29,1430,화요일,2013-10-29,2013,10,29,1654,강원도 춘천시 사북면 송암리 산46,,입산자실화 추정,0.05,2112,42,42110,42110360,14215742.29,4580698.477,38.0090407,127.7022059
697,2013,11,08,2131,금요일,2013-11-08,2013,11,08,2151,강원도 양양군 양양읍 청곡리 산26-1,,방화,0.01,258,42,42830,42830250,14317666.56,4591810.082,38.08768269999999,128.6180804
701,2013,11,22,2217,금요일,2013-11-22,2013,11,23,0230,강원도 태백시 하사미동 산85,,산업현장실화 추정,0.05,2456,42,42190,42190116,14358135.23,4482263.618,37.3089715,128.9812159
704,2013,12,01,2140,일요일,2013-12-01,2013,12,01,2240,강원도 강릉시 성산면 금산리 산31,,담뱃불실화 추정,0.03,446,42,42150,42150310,14343776.78,4542728.821,37.7398032,128.852272
706,2013,12,06,1406,금요일,2013-12-06,2013,12,06,1445,강원도 양양군 현북면 중광정리 산33,,입산자실화 추정,0.01,1095,42,42830,42830330,14326969.07,4583156.179,38.0264501,128.7011975
724,2014,01,13,1250,월요일,2014-01-13,2014,01,13,1600,강원도 화천군 상서면 파포리 산124,,농산폐기물소각,0.15,3497,42,42790,42790330,14208503.59,4600491.485,38.1490562,127.6372067
731,2014,01,15,1623,수요일,2014-01-15,2014,01,15,1914,강원도 삼척시 도계읍 흥전리 산92-1,,입산자실화 추정,0.1,10,42,42230,42230250,14362376.04,4468092.706,37.2139006,129.018834
732,2014,01,16,1040,목요일,2014-01-16,2014,01,16,1630,강원도 정선군 북평면 숙암리 산1,,입산자(수렵인)실화 추정,0.2,0,42,42770,42770340,14316672.18,4510592.675,37.50515,128.6013888
737,2014,01,19,1950,일요일,2014-01-19,2014,01,19,2045,강원도 원주시 신림면 성남리 산38,,담뱃불실화 추정,0.02,357,42,42130,42130390,14260947.9,4474440.181,37.2531739,128.1083755
772,2014,02,04,1935,화요일,2014-02-04,2014,02,04,2140,강원도 양양군 양양읍 화일리 545,,주택화재비화,0.5,8129,42,42830,42830250,14311817.44,4593560.502,38.1000005,128.5653489
816,2014,02,27,1230,목요일,2014-02-27,2014,02,27,1345,강원도 횡성군 우천면 하대리 산111,,논밭두렁소각,0.25,7067,42,42730,42730310,14258874.26,4504580.566,37.4683982,128.0896865
826,2014,03,03,1143,월요일,2014-03-03,2014,03,03,1250,강원도 원주시 흥업면 매지리 산116-1,,논밭두렁소각,0.1,4649,42,42130,42130370,14238637.86,4474137.393,37.2508771,127.9078187
827,2014,03,03,1412,월요일,2014-03-03,2014,03,03,1500,강원도 원주시 관설동 산158-4,,논밭두렁소각,0.06,2470,42,42130,42130116,14245993.55,4481503.81,37.3044048,127.9745698
837,2014,03,05,1507,수요일,2014-03-05,2014,03,05,1630,강원도 춘천시 남면 가정리 산59,,농산폐기물소각,0.01,4573,42,42110,42110340,14200797.81,4542217.376,37.7360997,127.5679757
844,2014,03,07,1150,금요일,2014-03-07,2014,03,07,1730,강원도 영월군 김삿갓면 진별리 산150,,농산폐기물소각,2,70561,42,42750,42750325,14309646.29,4457339.23,37.1453908,128.5468023
847,2014,03,07,1337,금요일,2014-03-07,2014,03,07,1500,강원도 춘천시 서면 당림리 산104,,용접불씨연소,0.05,4491,42,42110,42110350,14204762.22,4557448.231,37.8442628,127.6035653
850,2014,03,07,1510,금요일,2014-03-07,2014,03,07,1810,강원도 홍천군 북방면 북방리 산48,,굴뚝불씨연소,0.2,10292,42,42720,42720380,14233616.72,4551458.371,37.8018601,127.8628964
858,2014,03,10,1023,월요일,2014-03-10,2014,03,10,1245,강원도 화천군 화천읍 아리 산52,,농산폐기물소각 추정,0.12,9591,42,42790,42790250,14218054.9,4594218.447,38.1044648,127.7235339
878,2014,03,11,1650,화요일,2014-03-11,2014,03,11,1750,강원도 원주시 귀래면 용암리 산20-1,,입산자실화,0.06,3408,42,42130,42130360,14231688.25,4463076.04,37.1851687,127.8455679
905,2014,03,24,1627,월요일,2014-03-24,2014,03,24,1710,강원도 홍천군 두촌면 자은리 산170-1,,전기누전 추정,0.2,0,42,42720,42720320,14250100.94,4560871.191,37.8736649,128.0103068
906,2014,03,24,1914,월요일,2014-03-24,2014,03,24,2020,강원도 양양군 강현면 전진리 산5-2,,전선스파크 추정,0.3,0,42,42830,42830350,14318662.92,4596954.687,38.1261253,128.6267855
909,2014,03,27,1548,목요일,2014-03-27,2014,03,27,1700,강원도 철원군 갈말읍 문혜리 산304-3,,입산자실화,0.03,0,42,42780,42780256,14175074.04,4604386.647,38.1795537,127.3370137
910,2014,03,27,1729,목요일,2014-03-27,2014,03,27,1837,강원도 홍천군 서면 모곡리 산82,,작업장실화(용접 불티),0.2,0,42,42720,42720370,14204783.3,4533614.371,37.6770822,127.6039134
911,2014,03,27,1829,목요일,2014-03-27,2014,03,27,2035,강원도 평창군 용평면 노동리 산1-1,,원인미상,0.15,0,42,42760,42760350,14301462.96,4533303.943,37.7063961,128.475666
920,2014,04,01,1350,화요일,2014-04-01,2014,04,01,1450,강원도 횡성군 서원면 금대리 산203,,전기누전추정,0.2,0,42,42730,42730370,14237805.38,4507908.625,37.4921321,127.9006521
975,2014,04,09,1400,수요일,2014-04-09,2014,04,09,1500,강원도 영월군 수주면 운학리 산14,,쓰레기소각,1.42,0,42,42750,42750370,14269693.05,4484073.848,37.3224779,128.1870193
980,2014,04,10,1310,목요일,2014-04-10,2014,04,10,1419,강원도 양구군 남면 청리 산1-3,,담뱃불실화,0.05,0,42,42800,42800310,14254262.6,4589345.881,38.0701986,128.0483079
982,2014,04,10,1510,목요일,2014-04-10,2014,04,10,1550,강원도 철원군 갈말읍 문혜리 산140-8,,입산자실화 추정,0.03,0,42,42780,42780256,14174987.89,4605773.71,38.1866299,127.3361839
985,2014,04,11,1450,금요일,2014-04-11,2014,04,11,1730,강원도 춘천시 동면 품걸리 산65-2,,입산자실화 추정,0.01,0,42,42110,42110310,14235729.64,4565497.164,37.9015292,127.8827593
987,2014,04,11,1646,금요일,2014-04-11,2014,04,11,1810,강원도 원주시 지정면 판대리 산57-1,,입산자실화 추정,0.1,0,42,42130,42130330,14226626.68,4492899.367,37.3854814,127.7996436
989,2014,04,12,1404,토요일,2014-04-12,2014,04,12,1600,강원도 양구군 양구읍 월명리 산216,,입산자실화 추정,0.2,0,42,42800,42800250,14239263.3,4596525.297,38.1211257,127.9137046
991,2014,04,13,1420,일요일,2014-04-13,2014,04,13,1610,강원도 홍천군 북방면 북방리 산808,,쓰레기소각,0.1,0,42,42720,42720380,14231952.92,4553698.816,37.8059381,127.8497773
1017,2014,04,16,2257,수요일,2014-04-16,2014,04,17,0030,강원도 춘천시 동면 만천리 산31-15,,입산자실화 추정,0.09,0,42,42110,42110310,14225302.12,4561781.789,37.8750536,127.7881009
1019,2014,04,17,1914,목요일,2014-04-17,2014,04,17,2115,강원도 춘천시 동면 만천리 산30,,입산자실화 추정,0.03,0,42,42110,42110310,14225261.39,4561594.372,37.8741136,127.7881246
1023,2014,04,20,1341,일요일,2014-04-20,2014,04,20,1513,강원도 홍천군 서면 동막리 산110-1,,입산자실화 추정,0.2,0,42,42720,42720370,14200062.7,4531307.061,37.6591126,127.5613339
1028,2014,04,21,1315,월요일,2014-04-21,2014,04,21,1530,강원도 영월군 한반도면 광전리 산57,,입산자실화 추정,0.1,0,42,42750,42750355,14287886.99,4477008.15,37.2714066,128.3502426
1030,2014,04,21,1605,월요일,2014-04-21,2014,04,21,1730,강원도 고성군 토성면 인흥리 산75,,입산자실화 추정,0.09,0,42,42820,42820330,14306060.63,4611342.06,38.2257249,128.5138919
1031,2014,04,22,1035,화요일,2014-04-22,2014,04,22,1300,강원도 인제군 북면 한계리 산123,,입산자실화 추정,0.05,0,42,42810,42810320,14277011.71,4600699.649,38.1219556,128.3101926
1035,2014,04,22,1446,화요일,2014-04-22,2014,04,22,1710,강원도 홍천군 화촌면 군업리 산220,,담뱃불실화 추정,0.2,0,42,42720,42720310,14250941.68,4545142.472,37.7625353,128.0152035
1044,2014,04,23,1330,수요일,2014-04-23,2014,04,23,1640,강원도 춘천시 남면 추곡리 산85,,입산자실화,0.03,0,42,42110,42110340,14210224.22,4541779.295,37.7376563,127.6534055
1057,2014,04,24,1050,목요일,2014-04-24,2014,04,24,2030,강원도 홍천군 서석면 검산리 산102,,산나물채취자 실화 추정,2.5,0,42,42720,42720340,14275872.63,4538535.835,37.7403152,128.2404219
1058,2014,04,24,1205,목요일,2014-04-24,2014,04,24,1515,강원도 횡성군 우천면 정금리 산232,,입산자실화,0.4,0,42,42730,42730310,14262037.21,4512874.469,37.5276245,128.118186
1059,2014,04,24,1254,목요일,2014-04-24,2014,04,27,0800,강원도 영월군 수주면 두산리 산2,,원인미상,1,0,42,42750,42750370,14265484.7,4477700.899,37.29530159999999,128.1432164
1061,2014,04,24,1520,목요일,2014-04-24,2014,04,24,1800,강원도 춘천시 동산면 원창리 산160-1,,입산자실화,0.05,0,42,42110,42110320,14221184.72,4551338.461,37.8054574,127.7509199
1063,2014,04,24,1810,목요일,2014-04-24,2014,04,24,1930,강원도 춘천시 남산면 행촌리 산114,,입산자실화,0.06,0,42,42110,42110400,14212859.21,4543445.008,37.7448587,127.6761191
1064,2014,04,24,1839,목요일,2014-04-24,2014,04,24,2225,강원도 영월군 수주면 법흥리 산115,,원인미상,0.9,0,42,42750,42750370,14277781.84,4484882.694,37.3398502,128.2591815
1066,2014,04,25,1024,금요일,2014-04-25,2014,04,25,1215,강원도 삼척시 등봉동 산77,,농산폐기물소각,0.5,0,42,42230,42230113,14373984.71,4502967.503,37.4559031,129.1235674
1070,2014,04,25,1410,금요일,2014-04-25,2014,04,25,1510,강원도 양양군 현남면 후포매리 산32,,입산자실화 추정,0.04,0,42,42830,42830340,14331166.72,4571591.956,37.9445743,128.7393766
1074,2014,04,25,2020,금요일,2014-04-25,2014,04,25,2140,강원도 화천군 화천읍 아리 산48,,담뱃불실화 추정,0.1,0,42,42790,42790250,14218295.88,4594728.175,38.1083247,127.7252462
1076,2014,04,26,1040,토요일,2014-04-26,2014,04,26,1237,강원도 평창군 용평면 속사리 산11,,원인미상,0.3,0,42,42760,42760350,14304053.27,4530690.704,37.6552549,128.495863
1077,2014,04,26,1320,토요일,2014-04-26,2014,04,26,1600,강원도 영월군 한반도면 광전리 산141,,입산자실화 추정,0.1,0,42,42750,42750355,14282796.88,4477427.037,37.2741222,128.305056
1080,2014,04,26,1510,토요일,2014-04-26,2014,04,26,1750,강원도 양구군 남면 명곶리 산1-1,,입산자실화,0.1,0,42,42800,42800310,14249349.92,4582499.9,38.0271746,128.003471
1083,2014,04,27,1525,일요일,2014-04-27,2014,04,27,1635,강원도 양양군 현남면 입암리 산171-1,,입산자실화 추정,0.01,0,42,42830,42830340,14333775.2,4566865.051,37.9160724,128.7622287
1086,2014,05,04,1842,일요일,2014-05-04,2014,05,04,2140,강원도 홍천군 동면 속초리 산17,,입산자실화 추정,0.1,0,42,42720,42720350,14247664.08,4533464.899,37.67397880000001,127.9893374
1087,2014,05,05,1910,월요일,2014-05-05,2014,05,05,2100,강원도 양구군 동면 원당리 산7,,입산자실화 추정,0.05,0,42,42800,42800320,14257222.02,4607500.441,38.1986065,128.0750047
1089,2014,05,06,1820,화요일,2014-05-06,2014,05,06,2040,강원도 영월군 영월읍 정양리 산51,,쓰레기소각,0.3,0,42,42750,42750250,14306731.61,4460423.135,37.1529216,128.5193871
1095,2014,05,09,1612,금요일,2014-05-09,2014,05,09,1825,강원도 삼척시 노곡면 주지리 산49,,입산자실화,0.3,0,42,42230,42230330,14374717.59,4478636.617,37.2848802,129.1304919
1098,2014,05,10,1502,토요일,2014-05-10,2014,05,10,1748,강원도 영월군 북면 덕상리 산42,,입산자실화 추정,0.5,0,42,42750,42750330,14291233,4476745.648,37.27013230000001,128.3803515
1104,2014,05,11,1636,일요일,2014-05-11,2014,05,11,1800,강원도 인제군 남면 부평리 산93,,입산자실화 추정,0.03,0,42,42810,42810310,14258474.15,4577905.789,37.9898007,128.0865552
1106,2014,05,13,1119,화요일,2014-05-13,2014,05,13,1330,강원도 고성군 간성읍 광산리 산54,,양봉사화재비화,0.5,0,42,42820,42820250,14293808.64,4632748.616,38.3762713,128.404088
1107,2014,05,14,1824,수요일,2014-05-14,2014,05,14,1940,강원도 정선군 임계면 가목리 산11,,입산자실화 추정,0.1,0,42,42770,42770350,14355074.45,4506618.456,37.4838898,128.9551578
1124,2014,05,26,1210,월요일,2014-05-26,2014,05,26,1410,강원도 삼척시 근덕면 교곡리 산75-6,,산나물채취자 실화 추정,0.3,0,42,42230,42230310,14384151.74,4487873.212,37.3488557,129.2148621
1128,2014,05,28,1540,수요일,2014-05-28,2014,05,28,1905,강원도 양구군 남면 명곶리 산29-1,,입산자실화,0.1,0,42,42800,42800310,14249856.19,4582028.278,38.0224828,128.0087919
1132,2014,05,30,1000,금요일,2014-05-30,2014,05,30,1400,강원도 삼척시 도계읍 점리 산182-1,,무속행위,0.25,0,42,42230,42230250,14361188.52,4471393.679,37.2395584,129.0097223
1137,2014,05,31,1702,토요일,2014-05-31,2014,05,31,1904,강원도 평창군 미탄면 평안리 산1-2,,밭두렁소각,0.9,0,42,42760,42760310,14307393.91,4486995.591,37.3491439,128.5270899
1140,2014,06,01,2145,일요일,2014-06-01,2014,06,02,0150,강원도 횡성군 갑천면 상대리 산90-1,,쓰레기소각,0.1,0,42,42730,42730340,14268463.98,4513495.541,37.5310163,128.1764697
1144,2014,06,10,1718,화요일,2014-06-10,2014,06,10,2000,강원도 원주시 흥업면 매지리 산66,,낙뢰추정,0.01,0,42,42130,42130370,14239196.12,4476686.455,37.2691815,127.9128941
1146,2014,06,15,1410,일요일,2014-06-15,2014,06,15,1720,강원도 인제군 인제읍 가아리 산70,,도로공사(용접불티)비화,0.05,0,42,42810,42810250,14261664.07,4600628.642,38.1453645,128.1335981
1148,2014,06,19,1500,목요일,2014-06-19,2014,06,19,1800,강원도 인제군 남면 남전리 산226-1,,쓰레기소각,0.19,0,42,42810,42810310,14266826.86,4577159.065,38.0033628,128.1668271
1158,2014,07,20,1805,수요일,2014-07-20,2014,07,20,2000,강원도 춘천시 칠전동 산94,,입산자 실화추정,0.01,0,42,42110,42110126,14213043.87,4557851.054,37.8442564,127.6803052
1163,2014,09,20,1356,일요일,2014-09-20,2014,09,20,1840,강원도 화천군 화천읍 동촌리 산258,,입산자 실화추정,0.25,0,42,42790,42790250,14227946.51,4595857.863,38.1657827,127.8290531
1177,2014,10,28,1157,화요일,2014-10-28,2014,10,28,1735,강원도 홍천군 두촌면 천현리 산134-2,,입산자 실화,0.02,0,42,42720,42720320,14246284.57,4557980.147,37.854284,127.9774998
1179,2014,10,29,1330,화요일,2014-10-29,2014,10,29,1610,강원도 인제군 기린면 진동리 산71,,입산자 실화,0.7,0,42,42810,42810330,14297274.28,4576336.632,37.9942272,128.4482749
1180,2014,10,30,1443,토요일,2014-10-30,2014,10,30,1820,강원도 평창군 대화면 개수리 산22,,농산폐기물 소각,0.5,0,42,42760,42760330,14292717.54,4507829.349,37.4887504,128.3961203
1184,2014,11,09,1320,화요일,2014-11-09,2014,11,09,1640,강원도 홍천군 내촌면 와야리 산12-1,,차량화재,0.01,0,42,42720,42720330,14266828.97,4554651.567,37.8347784,128.1644567
1191,2014,11,11,1133,수요일,2014-11-11,2014,11,11,1215,강원도 양구군 양구읍 고대리 산123-1,,농산폐기물소각,0.05,0,42,42800,42800250,14247574.95,4598862.609,38.1347671,127.9900277
1199,2014,11,23,0834,금요일,2014-11-23,2014,11,23,1030,강원도 양양군 서면 논화리 산1-1,,입산자실화,1,0,42,42830,42830310,14309544.34,4589441.346,38.0745915,128.5474065
1201,2014,12,22,1026,금요일,2014-12-22,2014,12,22,1130,강원도 양양군 현북면 잔교리 산52,,쓰레기소각,0.05,0,42,42830,42830330,14330581.23,4578533.122,37.9909542,128.7362163
1207,2015,01,05,0154,월요일,2015-01-05,2015,01,05,0300,강원도 강릉시 주문진읍 주문리 산17-16,,입산자실화 추정,0.16,0,42,42150,42150250,14339093.11,4565518.309,37.9016372,128.8103177
1208,2015,01,10,1302,토요일,2015-01-10,2015,01,10,1600,강원도 강릉시 왕산면 대기리 산206,,입산자실화 추정,0.2,0,42,42150,42150320,14336326.86,4523558.354,37.5819651,128.7568297
1220,2015,02,01,1621,일요일,2015-02-01,2015,02,01,1743,강원도 춘천시 북산면 조교리 산226,,입산자실화추정,0.1,0,42,42110,42110380,14243159.25,4569217.034,37.9277781,127.9485378
1226,2015,02,08,1331,일요일,2015-02-08,2015,02,11,1000,강원도 삼척시 가곡면 오목리 산17,,화목보일러 불씨추정,52,0,42,42230,42230350,14379410.13,4463294.041,37.1730619,129.1723153
1235,2015,02,12,1146,목요일,2015-02-12,2015,02,12,1400,강원도 영월군 남면 북쌍리 산232-3,,건축물실화(공장),1,0,42,42750,42750340,14292780.67,4470622.365,37.226174,128.3943115
1250,2015,02,25,1344,수요일,2015-02-25,2015,02,25,1440,강원도 인제군 인제읍 원대리 산78-1,,쓰레기소각,0.05,0,42,42810,42810250,14273200.07,4580284.996,38.0061923,128.2184068
1254,2015,02,26,1415,목요일,2015-02-26,2015,02,26,1535,강원도 원주시 태장동 산7-3,,입산자실화추정,0.2,0,42,42130,42130112,14244348.21,4493193.935,37.3878901,127.958999
1263,2015,03,02,1617,월요일,2015-03-02,2015,03,02,1720,강원도 인제군 북면 한계리 산77,,입산자실화추정,0.01,0,42,42810,42810320,14277940.18,4599446.237,38.1219556,128.3101926
1264,2015,03,04,1140,수요일,2015-03-04,2015,03,05,0800,강원도 정선군 여량면 구절리 211,,팬션화재비화,7,0,42,42770,42770370,14332008.98,4511671.393,37.5307719,128.7275235
1280,2015,03,07,1335,토요일,2015-03-07,2015,03,07,1510,강원도 춘천시 동면 감정리 산11-1,,잔디소각,0.2,0,42,42110,42110310,14225736.84,4566004.406,37.9048758,127.7919042
1284,2015,03,08,1039,일요일,2015-03-08,2015,03,08,1200,강원도 횡성군 청일면 갑천리 산1,,농산폐기물소각,0.1,0,42,42730,42730350,14268920.34,4519669.124,37.57582439999999,128.1799332
1285,2015,03,08,1100,일요일,2015-03-08,2015,03,08,1400,강원도 고성군 죽왕면 구성리 산41,,쓰레기소각,0.9,0,42,42820,42820320,14301164.83,4626497.933,38.3324955,128.4696871
1290,2015,03,08,1400,일요일,2015-03-08,2015,03,08,1510,강원도 강릉시 성산면 위촌리 산475,,담뱃불실화,0.1,0,42,42150,42150310,14343114.59,4545554.432,37.7598243,128.846464
1296,2015,03,09,1421,월요일,2015-03-09,2015,03,09,1500,강원도 춘천시 신북읍 발산리 산23-2,,조사중,0.01,0,42,42110,42110250,14221799.23,4574501.361,37.9650987,127.7565464
1299,2015,03,09,1442,월요일,2015-03-09,2015,03,09,1626,강원도 춘천시 동면 지내리 산10,,조사중,0.01,0,42,42110,42110310,14224759.26,4568308.491,37.9212909,127.7833679
1321,2015,03,11,1717,수요일,2015-03-11,2015,03,11,1749,강원도 강릉시 연곡면 유등리 산217,,농산폐기물소각,0.1,0,42,42150,42150370,14334625.77,4557575.169,37.8453356,128.7699568
1322,2015,03,11,1859,수요일,2015-03-11,2015,03,11,1947,강원도 홍천군 동면 노천리 산53,,입산자실화추정,0.03,0,42,42720,42720350,14255621.02,4532067.632,37.6642339,128.0605734
1340,2015,03,14,1156,토요일,2015-03-14,2015,03,14,1212,강원도 강릉시 유천동 산59-2,,담뱃불실화추정,0.02,0,42,42150,42150131,14344409.35,4547656.519,37.774797,128.8580892
1344,2015,03,14,1330,토요일,2015-03-14,2015,03,14,1420,강원도 양구군 동면 팔랑리 631,,쓰레기소각,0.07,0,42,42800,42800320,14256718.68,4609519.057,38.2129082,128.0703076
1347,2015,03,14,1453,토요일,2015-03-14,2015,03,14,1648,강원도 홍천군 남면 명동리 산45,,쓰레기소각,0.8,0,42,42720,42720360,14222043.22,4527121.563,37.6288868,127.7585612
1355,2015,03,15,1036,일요일,2015-03-15,2015,03,15,1300,강원도 양구군 양구읍 석현리 산30-1,,주택화재비화,0.2,0,42,42800,42800250,14246485.9,4585577.124,38.0442754,127.9787437
1361,2015,03,15,1435,일요일,2015-03-15,2015,03,15,1715,강원도 동해시 쇄운동 산166,,쓰레기소각추정,0.3,0,42,42170,42170109,14366898.32,4505137.578,37.4735796,129.0599284
1372,2015,03,16,1554,월요일,2015-03-16,2015,03,16,1720,강원도 태백시 금천동 산49-3,,창고화재,0.5,0,42,42190,42190103,14359718.61,4452163.08,37.09360720000001,128.9955618
1381,2015,03,17,1614,화요일,2015-03-17,2015,03,17,1840,강원도 삼척시 원덕읍 이천리 산322,,밭두렁소각,0.5,0,42,42230,42230253,14386628.42,4466234.87,37.2109411,129.2351389
1383,2015,03,19,1503,목요일,2015-03-19,2015,03,19,1610,강원도 화천군 사내면 삼일리 산97,,입산자실화추정,0.02,0,42,42790,42790340,14195692.79,4585526.063,38.0433139,127.5220184
1387,2015,03,20,1443,금요일,2015-03-20,2015,03,20,1600,강원도 홍천군 동면 월운리 산70,,주택화재비화,0.1,0,42,42720,42720350,14240740.66,4527108.744,37.6293478,127.9267193
1397,2015,03,21,1325,토요일,2015-03-21,2015,03,21,1512,강원도 화천군 화천읍 아리 산54,,농산폐기물소각,0.3,0,42,42790,42790250,14218092.9,4593934.437,38.1025267,127.7234608
1416,2015,03,22,1340,일요일,2015-03-22,2015,03,22,1515,강원도 영월군 주천면 판운리 산379,,건축폐기물 소각,0.1,0,42,42750,42750360,14285299.71,4478916.914,37.2849648,128.3265446
1422,2015,03,22,1401,일요일,2015-03-22,2015,03,23,1030,강원도 화천군 간동면 도송리 산51,,쓰레기소각추정,11,0,42,42790,42790310,14226566.84,4589454.104,38.0711698,127.7994196
1424,2015,03,22,1420,일요일,2015-03-22,2015,03,22,1830,강원도 횡성군 청일면 신대리 산1-6,,재로인한 발화,0.3,0,42,42730,42730350,14273884.21,4523193.949,37.6094722,128.2254021
1431,2015,03,22,1604,일요일,2015-03-22,2015,03,22,2140,강원도 홍천군 두촌면 천현리 산134-3,,용접작업 비화,2,0,42,42720,42720320,14249135.72,4560719.578,37.8701535,128.0018551
1435,2015,03,23,0945,월요일,2015-03-23,2015,03,23,1053,강원도 철원군 갈말읍 토성리 산59,,쓰레기소각,0.1,0,42,42780,42780256,14175962.55,4618239.221,38.2742599,127.3453395
1439,2015,03,23,1250,월요일,2015-03-23,2015,03,23,2045,강원도 인제군 인제읍 가아리 산1,,군부대 진지보수,3,0,42,42810,42810250,14263729.27,4602285.421,38.1453645,128.1335981
1440,2015,03,23,1311,월요일,2015-03-23,2015,03,24,1800,강원도 홍천군 화촌면 군업리 산269,,입산자실화추정,3,0,42,42720,42720310,14249590.33,4544022.623,37.7489134,128.0061887
1456,2015,03,24,1635,화요일,2015-03-24,2015,03,24,1900,강원도 홍천군 내촌면 와야리 산12-2,,조사중,0.2,0,42,42720,42720330,14267557.52,4553289.728,37.8131483,128.1637425
1458,2015,03,25,1321,수요일,2015-03-25,2015,03,25,1527,강원도 홍천군 서석면 생곡리 산41-2,,담뱃불실화,0.1,0,42,42720,42720340,14278659.58,4532040.387,37.694464,128.2708307
1463,2015,03,25,1555,수요일,2015-03-25,2015,03,25,1800,강원도 삼척시 도계읍 점리 산103,,입산자실화추정,0.2,0,42,42230,42230250,14362220.04,4473971.913,37.2495626,129.0184435
1464,2015,03,25,1636,수요일,2015-03-25,2015,03,25,1735,강원도 원주시 귀래면 주포리 산64-16,,농산폐기물소각,0.06,0,42,42130,42130360,14232531.52,4462091.705,37.1647271,127.8530108
1465,2015,03,25,1700,수요일,2015-03-25,2015,03,25,1755,강원도 평창군 미탄면 백운리 산20,,입산자실화,0.2,0,42,42760,42760310,14310971.82,4487389.401,37.3460474,128.5575658
1467,2015,03,25,1923,수요일,2015-03-25,2015,03,26,1700,강원도 홍천군 내촌면 와야리 산12-2,,입산자실화추정,2.9,0,42,42720,42720330,14267557.52,4553289.728,37.8131483,128.1637425
1468,2015,03,25,2001,수요일,2015-03-25,2015,03,25,2200,강원도 춘천시 남산면 방하리 산133-1,,원인미상,0.05,0,42,42110,42110400,14197831.33,4547832.649,37.775948,127.5412965
1469,2015,03,26,1150,목요일,2015-03-26,2015,03,26,1550,강원도 삼척시 도경동 산86,,입산자실화추정,0.3,0,42,42230,42230114,14370953.12,4503557.615,37.4619116,129.0965846
1470,2015,03,26,1400,목요일,2015-03-26,2015,03,26,1650,강원도 원주시 신림면 황둔리 산66,,쓰레기소각,1.5,0,42,42130,42130390,14266859.48,4472642.657,37.2411031,128.1614707
1477,2015,03,27,1930,금요일,2015-03-27,2015,03,27,2130,강원도 고성군 간성읍 탑동리 169-7,,원인미상,0.9,0,42,42820,42820250,14300782.48,4628819.5,38.34888249999999,128.4661184
1478,2015,03,27,2139,금요일,2015-03-27,2015,03,27,2210,강원도 양양군 손양면 가평리 산49,,주택화재비화,0.03,0,42,42830,42830320,14320709.87,4591549.381,38.0859821,128.6451502
1494,2015,03,28,1440,토요일,2015-03-28,2015,03,28,2230,강원도 평창군 미탄면 평안리 산1-1,,창고화재,2.5,0,42,42760,42760310,14307769.92,4494591.637,37.3812884,128.5353921
1499,2015,03,29,1305,일요일,2015-03-29,2015,03,29,1339,강원도 원주시 태장동 산153,,입산자실화추정,0.05,0,42,42130,42130112,14244859.9,4489466.254,37.3601752,127.9641631
1503,2015,03,29,1430,일요일,2015-03-29,2015,03,29,1530,강원도 춘천시 남산면 백양리 산171,,쓰레기소각,0.03,0,42,42110,42110400,14200257.18,4553759.423,37.8187976,127.5638858
1508,2015,03,30,1308,월요일,2015-03-30,2015,03,30,1530,강원도 춘천시 남산면 강촌리 산25-1,,입산자실화추정,0.1,0,42,42110,42110400,14210667.92,4553974.506,37.8196727,127.6566815
1512,2015,04,03,1437,금요일,2015-04-03,2015,04,03,1540,강원도 인제군 북면 원통리 산249,,작업자실화추정,0.02,0,42,42810,42810320,14270789.22,4597412.163,38.1267524,128.1962395
1516,2015,04,12,0730,일요일,2015-04-12,2015,04,12,0900,강원도 원주시 호저면 주산리 산79-1,,입산자실화(노숙자 모닥불),0.06,0,42,42130,42130320,14239566.19,4497858.627,37.4204502,127.9164876
1520,2015,04,12,1620,일요일,2015-04-12,2015,04,12,1750,강원도 철원군 김화읍 청양리 산1,,캠핑장이용객 실화추정,0.2,0,42,42780,42780253,14183881.21,4614295.008,38.2464427,127.4160647
1522,2015,04,13,1041,월요일,2015-04-13,2015,04,13,1135,강원도 화천군 상서면 노동리 산130,,입산자실화추정,0.3,0,42,42790,42790330,14210980.42,4603631.415,38.1712538,127.6594911
1529,2015,04,23,1220,목요일,2015-04-23,2015,04,23,1440,강원도 고성군 간성읍 장신리 산9,,입산자실화,0.5,0,42,42820,42820250,14290627.52,4630867.36,38.3628631,128.3753477
1531,2015,04,23,1430,목요일,2015-04-23,2015,04,23,2200,강원도 인제군 인제읍 귀둔리 산242,,입산자실화,1,0,42,42810,42810250,14291936.56,4579773.93,38.0466608,128.3851271
1532,2015,04,24,1330,금요일,2015-04-24,2015,04,24,1600,강원도 정선군 여량면 구절리 244-5,,기타(직접입력),0.3,0,42,42770,42770370,14330956.93,4511782.972,37.5307719,128.7275235
1536,2015,04,25,1250,토요일,2015-04-25,2015,04,25,1900,강원도 철원군 원남면 죽대리 산157,,기타(직접입력),2,0,42,42780,42780360,14206431.62,4621996.006,38.3055675,127.6196576
1545,2015,04,26,1230,일요일,2015-04-26,2015,04,26,1440,강원도 화천군 상서면 구운리 산2,,쓰레기소각,0.2,0,42,42790,42790330,14203046.68,4598822.305,38.13213,127.6337238
1548,2015,04,26,1932,일요일,2015-04-26,2015,04,26,2325,강원도 강릉시 옥계면 산계리 산484-2,,작업장실화,0.2,0,42,42150,42150350,14358288.98,4520289.652,37.5804164,128.9488971
1558,2015,04,28,1358,화요일,2015-04-28,2015,04,28,2000,강원도 홍천군 화촌면 장평리 산1-10,,쓰레기소각,2,0,42,42720,42720310,14261399.99,4541691.28,37.7394055,128.0793455
1560,2015,04,29,2115,수요일,2015-04-29,2015,04,30,0150,강원도 양구군 양구읍 송청리 산43,,담뱃불실화,0.5,0,42,42800,42800250,14249019.79,4592215.37,38.0905162,128.0011346
1563,2015,05,02,1250,토요일,2015-05-02,2015,05,02,1600,강원도 영월군 남면 토교리 산118,,산나물채취객실화,0.03,0,42,42750,42750340,14280803.53,4462719.635,37.1694538,128.2876136
1564,2015,05,02,1730,토요일,2015-05-02,2015,05,02,1940,강원도 강릉시 주문진읍 삼교리 산216,,산나물채취객실화,0.02,0,42,42150,42150250,14330870.07,4563516.965,37.8873188,128.7363454
1565,2015,05,05,0715,화요일,2015-05-05,2015,05,05,0830,강원도 강릉시 사천면 노동리 산133-2,,담뱃불실화,0.01,0,42,42150,42150360,14339496.32,4553526.376,37.8164462,128.8137072
1566,2015,05,05,1040,화요일,2015-05-05,2015,05,06,1250,강원도 강릉시 왕산면 대기리 755-28,,산나물채취객실화,0.2,0,42,42150,42150320,14336649.23,4519930.989,37.5819651,128.7568297
1567,2015,05,05,1110,화요일,2015-05-05,2015,05,05,1220,강원도 평창군 봉평면 무이리 산166,,산나물채취객실화,0.1,0,42,42760,42760340,14285788.48,4523645.978,37.6042376,128.3313673
1568,2015,05,05,1632,화요일,2015-05-05,2015,05,05,1750,강원도 횡성군 횡성읍 학곡리 산165,,등산객실화,0.01,0,42,42730,42730250,14243253.13,4508289.58,37.4958955,127.9490327
1572,2015,05,07,1340,목요일,2015-05-07,2015,05,07,1440,강원도 춘천시 서면 월송리 산111,,등산객실화,0.01,0,42,42110,42110350,14212458.22,4567615.375,37.91628980000001,127.6728384
1573,2015,05,07,1450,목요일,2015-05-07,2015,05,07,1600,강원도 춘천시 동산면 군자리 산125,,논밭두렁소각,0.01,0,42,42110,42110320,14222203.87,4547088.397,37.7707135,127.7602754
1574,2015,05,08,1327,금요일,2015-05-08,2015,05,08,1410,강원도 강릉시 왕산면 왕산리 산52,,산나물채취객실화,0.1,0,42,42150,42150320,14338789.22,4532445.131,37.6666507,128.8075778
1575,2015,05,10,1409,일요일,2015-05-10,2015,05,10,1520,강원도 강릉시 왕산면 대기리 산61,,등산객실화,0.1,0,42,42150,42150320,14334576.66,4522821.235,37.5819651,128.7568297
1579,2015,05,11,1326,월요일,2015-05-11,2015,05,11,1500,강원도 정선군 임계면 봉산리 산150-2임,,등산객실화,0.1,0,42,42770,42770350,14340521.35,4507065.62,37.4868896,128.8233431
1582,2015,05,17,1112,일요일,2015-05-17,2015,05,17,1415,강원도 양양군 현북면 잔교리 산96,,산나물채취객실화,0.3,0,42,42830,42830330,14328930.37,4577869.535,37.9889732,128.7190836
1583,2015,05,17,1710,일요일,2015-05-17,2015,05,17,2000,강원도 홍천군 내면 율전리 145외 1필,,등산객실화,0.2,0,42,42720,42720390,14291780.68,4556659.581,37.79170149999999,128.3430482
1588,2015,05,21,0907,목요일,2015-05-21,2015,05,21,1700,강원도 영월군 북면 문곡리 산177,,농산폐기물소각,0.04,0,42,42750,42750330,14297578.34,4469205.663,37.2156949,128.4377757
1589,2015,05,21,1455,목요일,2015-05-21,2015,05,21,2000,강원도 삼척시 노곡면 고자리 산66,,농산폐기물소각,1.2,0,42,42230,42230330,14378362.7,4490280.751,37.3662556,129.1629873
1590,2015,05,21,1540,목요일,2015-05-21,2015,05,22,2100,강원도 홍천군 홍천읍 갈마곡리 산67-22,,등산객실화,1,0,42,42720,42720250,14237373.39,4535483.351,37.6881156,127.8963163
1591,2015,05,21,1553,목요일,2015-05-21,2015,05,21,1650,강원도 횡성군 우천면 상대리 산11,,담뱃불실화,0.01,0,42,42730,42730310,14258898.38,4502452.132,37.4541238,128.0903119
1592,2015,05,21,1922,목요일,2015-05-21,2015,05,22,0100,강원도 강릉시 왕산면 대기리 산345,,등산객실화,0.7,0,42,42150,42150320,14338319.57,4521368.145,37.5819651,128.7568297
1598,2015,05,23,1810,토요일,2015-05-23,2015,05,23,2000,강원도 평창군 평창읍 조둔리 산102,,등산객실화,0.5,0,42,42760,42760250,14288515.68,4489216.883,37.3586184,128.3558327
1602,2015,05,25,0125,월요일,2015-05-25,2015,05,25,1700,강원도 횡성군 갑천면 병지방리 산34,,등산객실화,0.5,0,42,42730,42730340,14255387.55,4523492.8,37.6172496,128.0626177
1623,2015,05,28,1810,목요일,2015-05-28,2015,05,28,1935,강원도 평창군 미탄면 한탄리 산1,,등산객실화,0.3,0,42,42760,42760310,14307148.87,4483701.077,37.319616,128.5227864
1629,2015,05,29,1505,금요일,2015-05-29,2015,05,29,2150,강원도 삼척시 가곡면 동활리 산49-1,,등산객실화,0.25,0,42,42230,42230350,14373818.37,4459260.929,37.1465973,129.116697
1631,2015,05,31,1052,일요일,2015-05-31,2015,05,31,1630,강원도 삼척시 하장면 갈전리 산56,,논밭두렁소각,0.5,0,42,42230,42230320,14347554.22,4493110.219,37.3843253,128.8849919
1632,2015,05,31,1330,일요일,2015-05-31,2015,05,31,1800,강원도 화천군 상서면 부촌리 산38,,등산객실화,0.03,0,42,42790,42790330,14212872.29,4606823.378,38.1937416,127.6763405
1633,2015,05,31,1427,일요일,2015-05-31,2015,05,31,1800,강원도 화천군 사내면 명월리 산28-1,,등산객실화,0.06,0,42,42790,42790340,14197040.04,4596923.688,38.1255864,127.5346584
1635,2015,05,31,1902,일요일,2015-05-31,2015,05,31,2305,강원도 횡성군 우천면 양적리 산4,,등산객실화,0.15,0,42,42730,42730310,14255372.35,4505215.723,37.4728086,128.0582264
1636,2015,05,31,1921,일요일,2015-05-31,2015,06,01,1200,강원도 횡성군 청일면 속실리 산20-1,,작업장실화,0.2,0,42,42730,42730350,14270371.62,4528044.806,37.6387735,128.1960496
1644,2015,06,02,1530,화요일,2015-06-02,2015,06,02,1800,강원도 춘천시 남산면 백양리 산2-7,,등산객실화,0.09,0,42,42110,42110400,14201870.67,4555739.412,37.8304163,127.5749911
1649,2015,06,03,1158,수요일,2015-06-03,2015,06,04,1342,강원도 횡성군 둔내면 현천리 339,,농산폐기물소각,0.1,0,42,42730,42730330,14269225.76,4506706.204,37.4833328,128.182502
1651,2015,06,03,1350,수요일,2015-06-03,2015,06,03,1820,강원도 인제군 남면 정자리 산43,,등산객실화,0.5,0,42,42810,42810310,14272791.11,4570592.454,37.9368382,128.216622
1654,2015,06,03,1428,수요일,2015-06-03,2015,06,04,1900,강원도 춘천시 남면 가정리 산96,,농산폐기물소각,1,0,42,42110,42110340,14200246.25,4544041.422,37.7489744,127.5633669
1659,2015,06,04,0657,목요일,2015-06-04,2015,06,05,1026,강원도 홍천군 두촌면 원동리 산34-10,,기타(직접입력),2,0,42,42720,42720320,14247412.68,4566598.238,37.9087484,127.9874917
1663,2015,06,04,1330,목요일,2015-06-04,2015,06,05,1500,강원도 철원군 갈말읍 문혜리 산31-1,,쓰레기소각,1,0,42,42780,42780256,14179451.64,4606844.531,38.1949298,127.3761757
1664,2015,06,04,1436,목요일,2015-06-04,2015,06,04,1850,강원도 강릉시 왕산면 송현리 산242-1,,등산객실화,0.1,0,42,42150,42150320,14341838.43,4516755.675,37.569728,128.8340567
1669,2015,06,04,2356,목요일,2015-06-04,2015,06,05,0140,강원도 고성군 간성읍 탑동리 산145-1,,기타(직접입력),0.06,0,42,42820,42820250,14298499.41,4626951.553,38.3357823,128.4450609
1672,2015,06,05,0832,금요일,2015-06-05,2015,06,05,0950,강원도 동해시 천곡동 산16-1,,등산객실화,0.02,0,42,42170,42170101,14372574.1,4510879.637,37.512766,129.1110088
1680,2015,06,07,1230,일요일,2015-06-07,2015,06,07,1430,강원도 화천군 화천읍 풍산리 산121,,등산객실화,0.01,0,42,42790,42790250,14218811.35,4599281.273,38.2198155,127.7724077
1691,2015,06,09,1703,화요일,2015-06-09,2015,06,09,1739,강원도 인제군 북면 용대리 산91,,기타(직접입력),0.01,0,42,42810,42810320,14285445.66,4606444.003,38.18866269999999,128.3651816
1694,2015,06,10,1241,수요일,2015-06-10,2015,06,10,2200,강원도 횡성군 서원면 유현리 산186,,등산객실화,1,0,42,42730,42730370,14234215.4,4514977.983,37.5419006,127.8672282
1695,2015,06,10,1503,수요일,2015-06-10,2015,06,10,1950,강원도 인제군 북면 용대리 산62,,등산객실화,0.25,0,42,42810,42810320,14290603.77,4601935.709,38.18866269999999,128.3651816
1696,2015,06,10,1600,수요일,2015-06-10,2015,06,10,1820,강원도 정선군 북평면 남평리 산130,,농산폐기물소각,0.4,0,42,42770,42770340,14323958.79,4499377.617,37.4309337,128.6742655
1697,2015,06,11,1254,목요일,2015-06-11,2015,06,11,2000,강원도 홍천군 화촌면 야시대리 산1-1,,등산객실화,0.5,0,42,42720,42720310,14243859.5,4554667.518,37.84238939999999,127.955375
1699,2015,06,12,1340,금요일,2015-06-12,2015,06,12,1525,강원도 인제군 남면 부평리 산31,,등산객실화,0.01,0,42,42810,42810310,14260088.47,4579356.123,37.9994522,128.1002908
1710,2015,06,15,1402,월요일,2015-06-15,2015,06,15,1730,강원도 양구군 남면 야촌리 산88,,낙뢰,0.01,0,42,42800,42800310,14256392.33,4596124.959,38.1210033,128.0684014
1714,2015,06,16,1326,화요일,2015-06-16,2015,06,16,1510,강원도 화천군 간동면 용호리 산51,,등산객실화,0.02,0,42,42790,42790310,14222958.25,4589589.507,38.0720265,127.7668785
1717,2015,06,17,1550,수요일,2015-06-17,2015,06,17,1730,강원도 춘천시 북산면 조교리 산1-1,,등산객실화,0.05,0,42,42110,42110380,14242718.26,4571686.906,37.9501576,127.9461526
1722,2015,06,22,1440,월요일,2015-06-22,2015,06,22,1730,강원도 홍천군 화촌면 내삼포리 산51,,등산객실화,0.1,0,42,42720,42720310,14247319.66,4541348.148,37.7352557,127.9850021
1750,2015,09,25,1418,금요일,2015-09-25,2015,09,25,1548,강원도 횡성군 강림면 강림리 산245,,성묘객실화추정,0.03,0,42,42730,42730380,14263648.35,4492211.678,37.3800947,128.1325717
1753,2015,09,27,1135,일요일,2015-09-27,2015,09,27,1410,강원도 춘천시 사북면 원평리 산8,,입산자실화추정,0.01,0,42,42110,42110360,14212004.87,4581850.199,38.01730010000001,127.6683728
1755,2015,09,27,1640,일요일,2015-09-27,2015,09,27,1747,강원도 원주시 판부면 서곡리 산71-5,,성묘객실화,0.01,0,42,42130,42130380,14243691.68,4482241.88,37.3114972,127.9447863
1765,2015,09,29,1400,화요일,2015-09-29,2015,09,29,1650,강원도 원주시 문막읍 비두리 산235,,입산자실화추정,0.05,0,42,42130,42130250,14231387.72,4470588.512,37.2258253,127.8425383
1773,2015,10,06,1510,화요일,2015-10-06,2015,10,06,1740,강원도 철원군 갈말읍 문혜리 산140-8,,입산자실화추정,0.1,0,42,42780,42780256,14174753.42,4605642.665,38.1866299,127.3361839
1782,2015,10,11,1210,일요일,2015-10-11,2015,10,11,1639,강원도 춘천시 서면 당림리 산1-1,,낙뢰 추정,0.01,0,42,42110,42110350,14209426.01,4556117.041,37.8376926,127.6327187
1787,2015,10,16,1535,금요일,2015-10-16,2015,10,16,1630,강원도 정선군 정선읍 봉양리 산6-1,,어린이불장난추정,0.05,0,42,42770,42770250,14322560.44,4492896.479,37.3851494,128.6619103
1788,2015,10,17,0920,토요일,2015-10-17,2015,10,17,1502,강원도 강릉시 연곡면 삼산리 산1-1,,조사중,0.8,0,42,42150,42150370,14320412.15,4558205.221,37.8252325,128.6559552
1789,2015,10,17,1557,토요일,2015-10-17,2015,10,17,1807,강원도 철원군 갈말읍 문혜리 산304-2,,원인미상,0.05,0,42,42780,42780256,14175891.58,4603051.432,38.1646459,127.3443796
1797,2015,10,24,1202,토요일,2015-10-24,2015,10,24,1830,강원도 강릉시 왕산면 대기리 산818,,전기배선단락,0.5,0,42,42150,42150320,14328087.27,4518261.077,37.5819651,128.7568297
1803,2015,10,25,2248,일요일,2015-10-25,2015,10,26,0255,강원도 평창군 진부면 봉산리 산1,,원인미상,0.1,0,42,42760,42760360,14320159.35,4520350.719,37.58486449999999,128.6407742
1810,2015,11,01,1640,일요일,2015-11-01,2015,11,01,1805,강원도 홍천군 내면 방내리 산281,,입산자실화추정,0.1,0,42,42720,42720390,14276238.49,4554885.003,37.8107051,128.2724166
1811,2015,11,02,1350,월요일,2015-11-02,2015,11,02,1500,강원도 강릉시 연곡면 방내리 산100,,농산폐기물소각,0.03,0,42,42150,42150370,14341771.8,4560385.519,37.8650829,128.8343831
1815,2015,11,04,1035,수요일,2015-11-04,2015,11,04,1400,강원도 인제군 상남면 하남리 산156-1,,작업장실화,0.2,0,42,42810,42810350,14277331.72,4568567.461,37.9267847,128.255418
1818,2015,12,12,1332,토요일,2015-12-12,2015,12,12,1510,강원도 횡성군 횡성읍 갈풍리 산11-4,,쓰레기소각,0.03,0,42,42730,42730250,14245088.82,4507044.784,37.486201,127.9659559
1819,2015,12,16,1340,수요일,2015-12-16,2015,12,16,1600,강원도 양양군 현남면 인구리 산35-4,,등산객실화,0.1,0,42,42830,42830340,14333672.44,4573163.46,37.95567339999999,128.7615945
1820,2015,12,19,2004,토요일,2015-12-19,2015,12,19,2100,강원도 인제군 남면 어론리 산3,,기타(직접입력),0.01,0,42,42810,42810310,14256468.78,4571431.493,37.9433168,128.0679147
1821,2015,12,22,1354,화요일,2015-12-22,2015,12,22,1430,강원도 강릉시 학동 291-1,,담뱃불실화,0.01,0,42,42150,42150128,14352321.14,4545336.323,37.7582967,128.9292868
1827,2016,01,06,1513,수요일,2016-01-06,2016,01,06,1630,강원도 고성군 거진읍 거진리 산73,,담뱃불 실화,0.06,0,42,42820,42820253,14299395.83,4643649.439,38.4509768,128.4558099
1837,2016,01,12,1428,화요일,2016-01-12,2016,01,12,1520,강원도 양구군 남면 가오작리 산180,,쓰레기 소각,0.05,0,42,42800,42800310,14253148.76,4600935.999,38.149427,128.0406425
1838,2016,01,13,1125,수요일,2016-01-13,2016,01,13,1205,강원도 원주시 호저면 매호리 산28-6,,논밭두렁 소각,0.03,0,42,42130,42130320,14235225.39,4498339.256,37.4210095,127.8792723
1844,2016,01,19,1840,화요일,2016-01-19,2016,01,19,2129,강원도 강릉시 구정면 금광리 산40-1,,보일러실 화재 비화,3,0,42,42150,42150330,14350794.6,4537308.053,37.6984451,128.9177707
1848,2016,01,22,1625,금요일,2016-01-22,2016,01,22,1730,강원도 춘천시 신동면 팔미리 산49,,입산자 실화추정,0.01,0,42,42110,42110330,14215929.47,4555243.541,37.8262432,127.7060766
1855,2016,01,25,1702,월요일,2016-01-25,2016,01,25,2000,강원도 춘천시 남면 발산리 산163,,보일러 연통불씨 비화,0.3,0,42,42110,42110340,14207180.96,4543266.92,37.7409877,127.6278671
1856,2016,01,25,1702,월요일,2016-01-25,2016,01,25,2000,강원도 춘천시 남면 발산리 163,,기타(직접입력),0.3,0,42,42110,42110340,14206956.64,4541107.418,37.7284792,127.6233776
1857,2016,01,26,0358,화요일,2016-01-26,2016,01,26,0700,강원도 춘천시 사북면 지암리 산46,,기타(직접입력),0.1,0,42,42110,42110360,14206448.34,4577160.655,37.9838894,127.6184788
1858,2016,01,26,0358,화요일,2016-01-26,2016,01,26,0700,강원도 춘천시 서면 지암리 산46,,원인미상(조사중),0.1,0,42,42110,42110350,14210777.76,4574533.863,37.9838894,127.6184788
1859,2016,01,26,1646,화요일,2016-01-26,2016,01,26,1750,강원도 양양군 강현면 사교리 산85-1,,쓰레기 소각(호두껍질),0.03,0,42,42830,42830350,14313314.59,4596149.445,38.1156948,128.5815589
1860,2016,01,26,1646,화요일,2016-01-26,2016,01,26,1750,강원도 양양군 강현면 사교리 산85,,기타(직접입력),0.03,0,42,42830,42830350,14313570.92,4595768.602,38.1156072,128.5804909
1862,2016,01,27,1622,수요일,2016-01-27,2016,01,27,1722,강원도 원주시 귀래면 운계리 산93-4,,쓰레기 소각,0.15,0,42,42130,42130360,14237305.38,4468863.719,37.2104687,127.8983142
1864,2016,01,29,0122,금요일,2016-01-29,2016,01,29,0430,강원도 홍천군 내촌면 서곡리 산10,,쓰레기 소각,0.05,0,42,42720,42720330,14262025.41,4552468.964,37.806262,128.1202715
1865,2016,01,29,1151,금요일,2016-01-29,2016,01,29,1400,강원도 홍천군 북방면 상화계리 산1,,입산자 실화추정(조사중),0.03,0,42,42720,42720380,14232210.56,4539437.397,37.71359830000001,127.8524517
1867,2016,01,31,1307,일요일,2016-01-31,2016,01,31,1410,강원도 영월군 수주면 운학리 산226-1,,건축물 실화(정화조 수리),0.05,0,42,42750,42750370,14271231.67,4490180.312,37.3627877,128.2028954
1868,2016,02,01,1436,월요일,2016-02-01,2016,02,01,1530,강원도 원주시 신림면 황둔리 산83-1,,입산자 실화,0.01,0,42,42130,42130390,14262014.44,4475168.667,37.2551304,128.120227
1871,2016,02,01,1749,월요일,2016-02-01,2016,02,01,1930,강원도 홍천군 내촌면 답풍리 산1-2,,(화목)보일러 재,0.3,0,42,42720,42720330,14256790.82,4554734.683,37.8224341,128.0732626
1876,2016,02,04,1122,목요일,2016-02-04,2016,02,04,1244,강원도 원주시 문막읍 취병리 산77-9,,쓰레기 소각,0.05,0,42,42130,42130250,14222867.28,4487515.219,37.343869,127.7686062
1877,2016,02,04,1335,목요일,2016-02-04,2016,02,04,1700,강원도 춘천시 동면 장학리 산15,,나무보일러 재 비화,1,0,42,42110,42110310,14222981.49,4566225.754,37.9045109,127.7698043
1880,2016,02,05,1556,금요일,2016-02-05,2016,02,05,1750,강원도 횡성군 우천면 하궁리 산42,,쓰레기 소각(낙엽)_,0.8,0,42,42730,42730310,14262631.61,4510550.003,37.5082234,128.1254933
1892,2016,02,08,1322,월요일,2016-02-08,2016,02,08,1545,강원도 횡성군 횡성읍 정암리 산64,,농산폐기물 소각,3,0,42,42730,42730250,14253498.93,4503007.165,37.4571524,128.0411877
1893,2016,02,08,1322,월요일,2016-02-08,2016,02,08,1545,강원도 횡성군 횡성읍 정암리 산64 외 5필,,농산폐기물 소각,3,0,42,42730,42730250,14253250.65,4503394.395,37.4571524,128.0411877
1909,2016,02,10,1340,수요일,2016-02-10,2016,02,10,1545,강원도 춘천시 북산면 청평리 산182-4,,무속행위,0.02,0,42,42110,42110380,14229070.75,4575851.618,37.9725881,127.8248907
1920,2016,02,18,2320,목요일,2016-02-18,2016,02,19,0200,강원도 동해시 발한동 산17번지 외 1,,원인미상,0.26,0,42,42170,42170111,14371858.65,4517453.959,37.5569814,129.1067758
1921,2016,02,18,2320,목요일,2016-02-18,2016,02,19,0200,강원도 동해시 발한동 산17,,기타(직접입력),0.8,0,42,42170,42170111,14372118.7,4517065.018,37.5569814,129.1067758
1925,2016,02,21,0906,일요일,2016-02-21,2016,02,21,1330,강원도 정선군 신동읍 조동리 산51-1,,철도 고압선 절단 스파크,0.3,0,42,42770,42770259,14324369.69,4469919.832,37.218065,128.6800853
1930,2016,02,21,1515,일요일,2016-02-21,2016,02,21,1735,강원도 정선군 남면 무릉리 산311,,(화목)보일러 불씨비화 추정,0.3,0,42,42770,42770320,14337924.43,4475988.361,37.2613139,128.8022391
1932,2016,02,23,1340,화요일,2016-02-23,2016,02,23,1520,강원도 인제군 북면 용대리 산256,,입산자 실화추정,1,0,42,42810,42810320,14290962.52,4611673.094,38.18866269999999,128.3651816
1933,2016,02,23,1352,화요일,2016-02-23,2016,02,23,1554,강원도 양구군 양구읍 한전리 산17-2,,기타(직접입력),0.5,0,42,42800,42800250,14251116.99,4602329.203,38.16195159999999,128.0199921
1934,2016,02,23,1352,화요일,2016-02-23,2016,02,23,1554,강원도 양구군 양구읍 한전리 산17-2외3,,UDT훈련 중 교탄 사용,0.5,0,42,42800,42800250,14250866.58,4602707.949,38.16195159999999,128.0199921
1936,2016,02,23,1750,화요일,2016-02-23,2016,02,23,1930,강원도 화천군 사내면 광덕리 산3,,입산자 실화추정,0.03,0,42,42790,42790340,14190952.28,4593821.247,38.09998,127.483272
1944,2016,02,26,1443,금요일,2016-02-26,2016,02,26,1535,강원도 춘천시 동내면 학곡리 산98,,논밭뚝 소각,0.01,0,42,42110,42110390,14221548.03,4555320.843,37.8264636,127.7567662
1945,2016,02,26,1540,금요일,2016-02-26,2016,02,26,1615,강원도 영월군 상동읍 내덕리 산98,,쓰레기 소각,0.05,0,42,42750,42750253,14329907.82,4456303.601,37.1231203,128.7775615
1950,2016,03,02,1800,수요일,2016-03-02,2016,03,02,1930,강원도 강릉시 성산면 어흘리 산219-1,,(화목)보일러 불씨비화 추정,0.1,0,42,42150,42150310,14338895.03,4540773.375,37.7229036,128.8095639
1956,2016,03,04,1334,금요일,2016-03-04,2016,03,04,1450,강원도 춘천시 북산면 추곡리 산70,,입산자 실화추정,0.03,0,42,42110,42110380,14236192.27,4581757.212,38.0137047,127.88804
1959,2016,03,04,1730,금요일,2016-03-04,2016,03,04,2010,강원도 철원군 갈말읍 문혜리 산304-2,,원인미상,0.1,0,42,42780,42780256,14175648.08,4603428.446,38.1646459,127.3443796
1960,2016,03,06,1528,일요일,2016-03-06,2016,03,06,1700,강원도 정선군 남면 유평리 산58-1,,쓰레기 소각,0.1,0,42,42770,42770320,14330682.77,4481362.676,37.299724,128.7371725
1968,2016,03,15,1711,화요일,2016-03-15,2016,03,15,1809,강원도 화천군 상서면 부촌리 산39,,입산자 실화추정,0.1,0,42,42790,42790330,14212515.01,4607050.339,38.1927001,127.6756076
1970,2016,03,16,1127,수요일,2016-03-16,2016,03,16,1220,강원도 영월군 북면 문곡리 산225-2,,농산부산물 소각,0.02,0,42,42750,42750330,14297497.7,4468470.495,37.2076955,128.4389369
1972,2016,03,16,1308,수요일,2016-03-16,2016,03,16,1345,강원도 횡성군 우천면 오원리 산257-4,,쓰레기 소각,0.04,0,42,42730,42730310,14257304.47,4501474.556,37.4434362,128.0778562
1985,2016,03,17,1220,목요일,2016-03-17,2016,03,17,1335,강원도 강릉시 성산면 관음리 산98-1,,담뱃불 실화,0.6,0,42,42150,42150310,14341273.46,4543293.154,37.740968,128.832412
1986,2016,03,17,1230,목요일,2016-03-17,2016,03,17,1350,강원도 홍천군 서면 굴업리 산84-4,,쓰레기 소각,0.1,0,42,42720,42720370,14214556.57,4524797.065,37.6097264,127.6938144
1999,2016,03,18,1346,금요일,2016-03-18,2016,03,18,1550,강원도 춘천시 동산면 원창리 산9,,농산폐기물,0.6,0,42,42110,42110320,14225694.15,4552431.379,37.8059039,127.7937584
2022,2016,03,23,1630,수요일,2016-03-23,2016,03,23,1656,강원도 원주시 호저면 옥산리 산4,,담뱃불 실화,0.03,0,42,42130,42130320,14239125.21,4499771.963,37.4310409,127.9144465
2027,2016,03,24,1302,목요일,2016-03-24,2016,03,24,1353,강원도 원주시 소초면 교항리 산182-1,,담뱃불실화,0.09,0,42,42130,42130310,14251562.29,4501534.918,37.4463683,128.0241387
2038,2016,03,27,1143,일요일,2016-03-27,2016,03,27,1350,강원도 화천군 사내면 광덕리 산153,,쓰레기 소각,0.3,0,42,42790,42790340,14190686.28,4595469.217,38.1108024,127.479366
2050,2016,03,28,1303,월요일,2016-03-28,2016,03,28,1839,강원도 철원군 김화읍 청양리 산301,,입산자 실화추정,2,0,42,42780,42780253,14177883.67,4615391.435,38.2518175,127.3646039
2064,2016,03,28,1815,월요일,2016-03-28,2016,03,28,1900,강원도 원주시 신림면 성남리 산112-2,,잔디소각,0.03,0,42,42130,42130390,14258351.01,4475454.644,37.2575513,128.0871862
2087,2016,03,31,1252,목요일,2016-03-31,2016,03,31,1530,강원도 화천군 사내면 명월리 산48,,입산자 실화추정,1.5,0,42,42790,42790340,14194806.17,4594713.448,38.105541,127.5167657
2095,2016,04,01,1006,금요일,2016-04-01,2016,04,01,1110,강원도 철원군 갈말읍 문혜리 산304-9,,주택화재 비화,0.2,0,42,42780,42780256,14177376.76,4604758.38,38.1693957,127.3594828
2096,2016,04,01,1120,금요일,2016-04-01,2016,04,01,1218,강원도 평창군 진부면 상진부리 산280,,쓰레기 소각추정,0.2,0,42,42760,42760360,14310886.49,4531396.504,37.6563302,128.5591532
2100,2016,04,01,1245,금요일,2016-04-01,2016,04,01,2020,강원도 양구군 남면 송우리 산46,,입산자 실화추정,6,0,42,42800,42800310,14250498.56,4594229.654,38.102213,128.0170307
2112,2016,04,01,1648,금요일,2016-04-01,2016,04,01,1755,강원도 횡성군 횡성읍 갈풍리 산53-1외 1필,,쓰레기 소각,0.5,0,42,42730,42730250,14242237.13,4506136.66,37.4768002,127.9429328
2113,2016,04,01,1648,금요일,2016-04-01,2016,04,01,1755,강원도 횡성군 횡성읍 갈풍리 산53-1,,쓰레기소각,0.5,0,42,42730,42730250,14242484.41,4505749.922,37.4768002,127.9429328
2132,2016,04,02,1420,토요일,2016-04-02,2016,04,02,1800,강원도 홍천군 서면 어유포리 산67,,용접작업 실화,1,0,42,42720,42720370,14214407.65,4538107.227,37.7040649,127.6922292
2140,2016,04,02,1524,토요일,2016-04-02,2016,04,02,1750,강원도 영월군 김삿갓면 진별리 산203,,사유 임도변 차량화재(영월군수 사용허가지),0.5,0,42,42750,42750325,14308089.01,4459666.461,37.1453908,128.5468023
2144,2016,04,02,1905,토요일,2016-04-02,2016,04,02,2225,강원도 평창군 방림면 운교리 산237-1,,농산폐기물 소각,2,0,42,42760,42760320,14280403.82,4498690.621,37.42365100000001,128.2853245
2151,2016,04,04,1752,월요일,2016-04-04,2016,04,04,1851,강원도 화천군 하남면 거례리 산149,,입산자 실화추정,0.01,0,42,42790,42790320,14214049.9,4588304.746,38.0598105,127.6891212
2159,2016,04,06,1510,수요일,2016-04-06,2016,04,06,1624,강원도 원주시 부론면 정산리 산179-9외 1필,,논밭두렁 소각추정,0.05,0,42,42130,42130350,14224580.91,4466337.735,37.191498,127.7838792
2160,2016,04,06,1510,수요일,2016-04-06,2016,04,06,1624,강원도 원주시 부론면 정산리 산179,,논밭두렁소각,0.05,0,42,42130,42130350,14224825.56,4465948.061,37.1923479,127.7839811
2166,2016,04,06,1940,수요일,2016-04-06,2016,04,06,2150,강원도 홍천군 동면 좌운리 산192-5,,입산자 실화추정,0.8,0,42,42720,42720350,14248200.97,4528253.691,37.6338345,127.9970064
2169,2016,04,09,1532,토요일,2016-04-09,2016,04,09,1644,강원도 고성군 죽왕면 오봉리 산141,,기타(직접입력),0.08,0,42,42820,42820320,14304718.84,4626722.657,38.335242,128.502797
2170,2016,04,09,1532,토요일,2016-04-09,2016,04,09,1644,강원도 고성군 죽왕면 오봉리 산141외 2필지,,입산자 실화추정,0.08,0,42,42820,42820320,14304462.6,4627100.643,38.335242,128.502797
2178,2016,04,11,1251,월요일,2016-04-11,2016,04,11,1420,강원도 춘천시 신북읍 용산리 산2,,담뱃불 추정,0.7,0,42,42110,42110250,14214730.99,4573568.586,37.9593882,127.6956504
2192,2016,04,16,1513,토요일,2016-04-16,2016,04,16,1623,강원도 삼척시 미로면 사둔리 산161-5,,입산자 실화추정(조사중),0.04,0,42,42230,42230340,14368968.96,4498766.486,37.4240434,129.0809622
2195,2016,04,24,1035,일요일,2016-04-24,2016,04,24,1215,강원도 삼척시 원덕읍 임원리 산367,,입산자 실화추정,0.05,0,42,42230,42230253,14397112.32,4471323.526,37.2280026,129.3338143
2198,2016,04,26,1235,화요일,2016-04-26,2016,04,26,1350,강원도 인제군 남면 상수내리 산65-5 외 1,,쓰레기 소각,0.01,0,42,42810,42810310,14254885.9,4576368.479,37.9757554,128.05597
2199,2016,04,26,1235,화요일,2016-04-26,2016,04,26,1350,강원도 인제군 남면 상수내리 산65-5,,쓰레기소각,0.09,0,42,42810,42810310,14255136.04,4575987.562,37.9757554,128.05597
2204,2016,04,30,1905,토요일,2016-04-30,2016,04,30,2015,강원도 강릉시 연곡면 삼산리 산71,,취사행위,0.03,0,42,42150,42150370,14325763.31,4558582.961,37.8252325,128.6559552
2205,2016,05,01,0835,일요일,2016-05-01,2016,05,01,0930,강원도 평창군 봉평면 덕거리 산1,,산나물 채취자 실화추정,0.01,0,42,42760,42760340,14293536.09,4532639.089,37.6727513,128.4029593
2206,2016,05,07,1640,토요일,2016-05-07,2016,05,07,1900,강원도 삼척시 하장면 장전리 산25,,입산자 실화(조사중),0.03,0,42,42230,42230320,14352121.81,4489711.984,37.3593987,128.9297282
2208,2016,05,09,1323,월요일,2016-05-09,2016,05,09,1605,강원도 영월군 주천면 판운리 산1-3,,기타(직접입력),0.2,0,42,42750,42750360,14282763.4,4486155.981,37.3411402,128.3030324
2209,2016,05,09,1353,월요일,2016-05-09,2016,05,09,1605,강원도 영월군 주천면 판운리 산1-3(임),,(화목)보일러 불티,0.02,0,42,42750,42750360,14282513.65,4486544.887,37.3411402,128.3030324
2210,2016,05,12,1724,목요일,2016-05-12,2016,05,12,1930,강원도 삼척시 근덕면 부남리 산53,,군사훈련(신호탄),0.1,0,42,42230,42230310,14387705.09,4490463.163,37.3646506,129.2493807
2211,2016,05,14,1235,토요일,2016-05-14,2016,05,14,1420,강원도 정선군 신동읍 운치리 산176,,배추묘종비닐 화구 작업중 실화,0.3,0,42,42770,42770259,14319218.03,4475430.322,37.2568042,128.6340123
2213,2016,05,14,1520,토요일,2016-05-14,2016,05,14,1800,강원도 정선군 남면 무릉리 산135,,예초기 과열로 인한 실화,2,0,42,42770,42770320,14334640.73,4477329.755,37.2711623,128.7741159
2214,2016,05,15,1312,일요일,2016-05-15,2016,05,15,1530,강원도 정선군 신동읍 운치리 산174,,입산자 실화추정(조사중),0.1,0,42,42770,42770259,14319319.44,4475738.363,37.2594334,128.634831
2215,2016,05,18,1314,수요일,2016-05-18,2016,05,18,1540,강원도 양양군 강현면 침교리 산9,,영농부산물 소각 실화,0.05,0,42,42830,42830350,14314286.98,4597165.337,38.1230442,128.5896249
2217,2016,05,20,1518,금요일,2016-05-20,2016,05,20,1623,강원도 원주시 소초면 흥양리 992-58,,입산자 실화추정,0.08,0,42,42130,42130310,14248718.19,4491695.175,37.3735946,128.0006495
2219,2016,05,21,1504,토요일,2016-05-21,2016,05,21,1800,강원도 춘천시 신동면 의암리 산85-1,,산업현장실화(용접),0.01,0,42,42110,42110330,14212811.54,4556973.468,37.8382778,127.6780945
2220,2016,05,21,1955,토요일,2016-05-21,2016,05,21,2140,강원도 양구군 양구읍 학조리 산6,,쓰레기소각,0.05,0,42,42800,42800250,14246916.81,4590401.237,38.077543,127.9816074
2227,2016,05,30,1345,월요일,2016-05-30,2016,05,30,1550,강원도 평창군 진부면 송정리 산191-2,,쓰레기소각,1,0,42,42760,42760360,14314584.38,4527188.999,37.6265197,128.5915314
2233,2016,06,03,1110,금요일,2016-06-03,2016,06,03,1540,강원도 삼척시 원덕읍 이천리 산322,,기타(직접입력),0.5,0,42,42230,42230253,14388175.43,4468852.245,37.2109411,129.2351389
2234,2016,06,03,1110,금요일,2016-06-03,2016,06,03,1540,강원도 삼척시 가곡면 오목리 산21,,등산객실화,0.5,0,42,42230,42230350,14379782.34,4462771.142,37.1842785,129.1808705
2235,2016,06,03,1145,금요일,2016-06-03,2016,06,03,1240,강원도 인제군 남면 어론리 산352,,기타(직접입력),0.1,0,42,42810,42810310,14255085.66,4571350.859,37.9401018,128.0576572
2236,2016,06,04,0607,토요일,2016-06-04,2016,06,04,1140,강원도 고성군 토성면 원암리 산1,,기타(직접입력),0.3,0,42,42820,42820330,14302092.05,4609364.782,38.2074358,128.4659574
2237,2016,06,04,1105,토요일,2016-06-04,2016,06,04,1300,강원도 화천군 하남면 거례리 산252,,기타(직접입력),0.01,0,42,42790,42790320,14216194.08,4584934.868,38.0369669,127.708415
2239,2016,06,05,1046,일요일,2016-06-05,2016,06,05,1250,강원도 인제군 남면 남전리 산13-2임,,주택화재비화,0.1,0,42,42810,42810310,14265440.23,4584828.62,38.0355855,128.1509828
2240,2016,06,05,1046,일요일,2016-06-05,2016,06,05,1250,강원도 인제군 남면 남전리 산13-2,,주택화재비화,0.1,0,42,42810,42810310,14265691.55,4584448.177,38.0355855,128.1509828
2246,2016,06,06,1248,월요일,2016-06-06,2016,06,06,1530,강원도 강릉시 연곡면 유등리 산123,,농산폐기물소각,0.1,0,42,42150,42150370,14333796.24,4559958.69,37.8619186,128.7626088
2247,2016,06,06,1248,월요일,2016-06-06,2016,06,06,1530,강원도 강릉시 연곡면 유등리 산213,,농산폐기물소각,0.1,0,42,42150,42150370,14333767.48,4557506.271,37.8420372,128.7646884
2248,2016,06,06,1450,월요일,2016-06-06,2016,06,06,1700,강원도 인제군 남면 부평리 산40-1,,기타(직접입력),0.01,0,42,42810,42810310,14263810.86,4577915.707,37.9866228,128.134972
2249,2016,06,10,1255,금요일,2016-06-10,2016,06,10,1435,강원도 홍천군 내촌면 도관리 산277-1,,쓰레기소각,0.1,0,42,42720,42720330,14257674.54,4555920.063,37.8307036,128.0810838
2250,2016,06,10,1307,금요일,2016-06-10,2016,06,10,1430,강원도 정선군 신동읍 덕천리 산13,,농산폐기물소각,0.2,0,42,42770,42770259,14314331.49,4476478.569,37.2646508,128.5902223
2256,2016,06,17,1310,금요일,2016-06-17,2016,06,17,1440,강원도 춘천시 서면 덕두원리 산164-3임,,기타(직접입력),0.01,0,42,42110,42110350,14210490.69,4557216.422,37.84040830000001,127.6599731
2257,2016,06,17,1310,금요일,2016-06-17,2016,06,17,1440,강원도 춘천시 서면 덕두원리 산164-3,,기타(직접입력),0.01,0,42,42110,42110350,14210736.99,4556834.915,37.84040830000001,127.6599731
2260,2016,06,20,1545,월요일,2016-06-20,2016,06,20,1721,강원도 원주시 흥업면 대안리 1256,,등산객실화,0.05,0,42,42130,42130370,14235795.16,4480481.407,37.2963168,127.8822678
2261,2016,06,20,1545,월요일,2016-06-20,2016,06,20,1721,강원도 원주시 흥업면 대안리 1256-9(임),,등산객실화,0.05,0,42,42130,42130370,14235549.29,4480869.878,37.297599,127.8768686
2264,2016,06,29,1430,수요일,2016-06-29,2016,06,29,1630,강원도 횡성군 서원면 석화리 산41-1,,기타(직접입력),0.3,0,42,42730,42730370,14226828.96,4502538.553,37.4534585,127.8014945
2271,2016,08,18,1555,목요일,2016-08-18,2016,08,18,1846,강원도 횡성군 서원면 옥계리 산100,,등산객실화,0.04,0,42,42730,42730370,14232725.57,4496638.566,37.410267,127.8542179
2273,2016,08,23,1628,화요일,2016-08-23,2016,08,23,1844,강원도 원주시 귀래면 귀래리 산325,,기타(직접입력),0.03,0,42,42130,42130360,14233016.44,4468715.582,37.2121586,127.8573931
2284,2016,09,20,1410,화요일,2016-09-20,2016,09,20,1630,강원도 춘천시 사북면 고성리 산102,,기타(직접입력),0.01,0,42,42110,42110360,14220939.95,4579511.35,38.0124363,127.7496494
2287,2016,11,14,1233,월요일,2016-11-14,2016,11,14,1310,강원도 삼척시 하장면 광동리 175,,기타(직접입력),0.01,0,42,42230,42230320,14353948.59,4487967.834,37.3498347,128.9435341
2289,2016,11,21,0429,월요일,2016-11-21,2016,11,21,0550,강원도 강릉시 구정면 제비리 산96-1,,기타(직접입력),0.01,0,42,42150,42150330,14343908.91,4537747.708,37.7044355,128.8535372
2293,2016,11,25,1745,금요일,2016-11-25,2016,11,25,1850,강원도 횡성군 횡성읍 청용리 산28,,기타(직접입력),0.03,0,42,42730,42730250,14248632.07,4503996.131,37.4639888,127.9976759
2294,2016,11,29,0435,화요일,2016-11-29,2016,11,29,0530,강원도 강릉시 주문진읍 장덕리 산63,,기타(직접입력),0.01,0,42,42150,42150250,14335134.78,4563178.44,37.8846789,128.7748516
2297,2016,12,02,1237,금요일,2016-12-02,2016,12,02,1330,강원도 철원군 서면 자등리 산209,,기타(직접입력),0.02,0,42,42780,42780310,14181924.94,4600717.09,38.1506214,127.3983957
2310,2017,01,11,1422,수요일,2017-01-11,2017,01,11,1600,강원도 춘천시 서면 현암리 산8,,(화목)화목보일러 재처리 부주의,0.05,892,42,42110,42110350,14213945.34,4563956.093,37.8904105,127.6860429
2312,2017,01,12,1619,목요일,2017-01-12,2017,01,12,1730,강원도 강릉시 사천면 판교리 산30,,입산자 실화,0.03,305,42,42150,42150360,14342856.33,4557280.488,37.8430693,128.8440697
2313,2017,01,14,2144,토요일,2017-01-14,2017,01,14,2255,강원도 양양군 현북면 하광정리 산14,,풍등,0.07,3361,42,42830,42830330,14330058.18,4582423.956,38.0212174,128.729105
2316,2017,01,16,1339,월요일,2017-01-16,2017,01,16,1415,강원도 양양군 서면 오색리 산83,,쓰레기 소각,0.02,246,42,42830,42830310,14300865.35,4590407.675,38.0776975,128.46686
2319,2017,01,19,1855,목요일,2017-01-19,2017,01,19,1935,강원도 강릉시 구정면 어단리 산315,,주택화재로인한 산화,0.05,574,42,42150,42150330,14347919.65,4536716.585,37.6968486,128.8897159
2373,2017,02,21,1156,화요일,2017-02-21,2017,02,21,1255,강원도 강릉시 강동면 안인진리 산39-1,,등산객 쓰레기 소각,0.03,3699,42,42150,42150340,14359317.25,4541163.524,37.7286478,128.9919411
2376,2017,02,22,0915,수요일,2017-02-22,2017,02,22,0945,강원도 강릉시 강동면 안인진리 산39-1,,입산자 실화,0.01,5296,42,42150,42150340,14359317.25,4541163.524,37.7286478,128.9919411
2382,2017,02,28,1053,화요일,2017-02-28,2017,02,28,1152,강원도 홍천군 내촌면 물걸리 산41,,쓰레기 소각,0.2,2827,42,42720,42720330,14268263.73,4549351.423,37.7867995,128.1739925
2383,2017,02,28,1300,화요일,2017-02-28,2017,02,28,1400,강원도 원주시 호저면 옥산리 산16,,쓰레기 소각,0.1,972,42,42130,42130320,14240089.87,4499395.785,37.431296,127.920902
2388,2017,03,03,2120,금요일,2017-03-03,2017,03,03,2355,강원도 홍천군 서면 팔봉리 산20,,풍등,0.01,1860,42,42720,42720370,14216383.72,4537342.817,37.7014952,127.7079469
2401,2017,03,09,1028,목요일,2017-03-09,2017,03,10,2230,강원도 강릉시 옥계면 산계리 산119,,입산자 실화,160.41,2415804,42,42150,42150350,14359443.49,4522789.276,37.5804164,128.9488971
2407,2017,03,10,1135,금요일,2017-03-10,2017,03,10,1220,강원도 춘천시 동면 만천리 산11-3,,입산자 실화,0.01,1898,42,42110,42110310,14224604,4562271.31,37.87846529999999,127.7817911
2411,2017,03,10,1250,금요일,2017-03-10,2017,03,10,1410,강원도 삼척시 도계읍 늑구리 산38,,주택내 쓰레기 소각,0.1,3775,42,42230,42230250,14366597.18,4477348.634,37.2739417,129.0570926
2418,2017,03,10,2130,금요일,2017-03-10,2017,03,10,0000,강원도 홍천군 홍천읍 상오안리 산2,,원인미상(조사중),0.2,0,42,42720,42720250,14229637.64,4526826.951,37.6357344,127.8222378
2433,2017,03,11,1458,토요일,2017-03-11,2017,03,11,2000,강원도 양구군 남면 가오작리 산1,,방위사업청 무인기 시험사업 중 발화(추정),0.3,0,42,42800,42800310,14257592.2,4598414.042,38.1342898,128.0781301
2439,2017,03,11,1628,토요일,2017-03-11,2017,03,11,1900,강원도 홍천군 서면 팔봉리 산225,,입산자 실화,0.05,0,42,42720,42720370,14194037.58,4232748.659,37.696109,127.6949633
2449,2017,03,12,1745,일요일,2017-03-12,2017,03,12,1940,강원도 춘천시 서면 안보리 산24,,쓰레기 소각,0.3,4514,42,42110,42110350,14203443.31,4556685.99,37.8388546,127.5917056
2455,2017,03,13,1538,월요일,2017-03-13,2017,03,13,1700,강원도 영월군 김삿갓면 와석리 산97-2,,용접불티 비화(주택신축),0.3,4139,42,42750,42750325,14316333.53,4454405.2,37.1097076,128.6057913
2461,2017,03,14,1215,화요일,2017-03-14,2017,03,14,1400,강원도 화천군 상서면 다목리 94,,입산자 실화추정,0.1,4117,42,42790,42790330,14203281.23,4604166.145,38.1749216,127.5902445
2462,2017,03,14,1226,화요일,2017-03-14,2017,03,14,1455,강원도 춘천시 서면 안보리 산25-1,,논밭두렁 소각,0.3,6819,42,42110,42110350,14202653.81,4557114.645,37.8418934,127.5846056
2465,2017,03,14,1511,화요일,2017-03-14,2017,03,14,1820,강원도 홍천군 서면 모곡리 산120-1,,입산자 실화,0.5,9989,42,42720,42720370,14381218.41,4262295.888,37.6991418,127.5850099
2468,2017,03,15,1102,수요일,2017-03-15,2017,03,15,1230,강원도 춘천시 동산면 원창리 산342,,입산자 실화,0.05,1984,42,42110,42110320,14226247.08,4550742.85,37.7966787,127.7965498
2486,2017,03,17,1346,금요일,2017-03-17,2017,03,17,1447,강원도 철원군 동송읍 양지리 산5,,나뭇가지 채취 소각,0.1,337,42,42780,42780259,14169494.8,4617581.791,38.2704144,127.2866508
2493,2017,03,18,1300,토요일,2017-03-18,2017,03,18,1410,강원도 고성군 토성면 성천리 산27,,입산자 실화추정,0.1,2758,42,42820,42820330,14310011.57,4611252.859,38.2249521,128.5490203
2504,2017,03,18,1650,토요일,2017-03-18,2017,03,18,1800,강원도 원주시 흥업면 흥업리 산38,,건축물 화재(비닐하우스),0.03,3176,42,42130,42130370,14239728.59,4478720.422,37.2836663,127.9176573
2508,2017,03,19,1044,일요일,2017-03-19,2017,03,19,1239,강원도 평창군 용평면 도사리 418-1,,주택화재 비화,0.3,4478,42,42760,42760350,14298546.13,4527527.122,37.6316975,128.4460236
2510,2017,03,19,1058,일요일,2017-03-19,2017,03,19,1458,강원도 화천군 하남면 논미리 산184,,농산폐기물 소각,1.5,28055,42,42790,42790320,14209215.15,4595796.95,38.1157961,127.643554
2523,2017,03,19,1425,일요일,2017-03-19,2017,03,19,1515,강원도 영월군 영월읍 영흥리 산68,,쓰레기 소각,0.2,3976,42,42750,42750250,14302610.32,4467634.812,37.204393,128.4825356
2531,2017,03,19,1814,일요일,2017-03-19,2017,03,19,2000,강원도 춘천시 석사동 산69-1,,농산폐기물 소각,0.05,0,42,42110,42110124,14221064.39,4557676.985,37.84640539999999,127.7496908
2541,2017,03,22,1638,수요일,2017-03-22,2017,03,22,1735,강원도 인제군 인제읍 남북리 산4,,입산자 실화,0.01,1696,42,42810,42810250,14268508.42,4586673.625,38.07713270000001,128.1436063
2542,2017,03,22,1754,수요일,2017-03-22,2017,03,22,2015,강원도 화천군 사내면 사창리 산83,,입산자 실화추정,0.15,4645,42,42790,42790340,14194995.93,4592122.867,38.0898245,127.5158168
2546,2017,03,23,1342,목요일,2017-03-23,2017,03,23,1530,강원도 횡성군 갑천면 삼거리 산80,,산업현장 실화(추정),0.5,7546,42,42730,42730340,14258704.32,4518499.381,37.56744380000001,128.0881211
2573,2017,03,30,1510,목요일,2017-03-30,2017,03,30,1630,강원도 춘천시 서면 당림리 산1-1,,농산폐기물 소각,0.01,0,42,42110,42110350,14208862.13,4555745.941,37.8376926,127.6327187
2574,2017,03,30,1521,목요일,2017-03-30,2017,03,30,1730,강원도 홍천군 화촌면 성산리 산72,,농산폐기물 소각,0.51,6985,42,42720,42720310,14243603.73,4546948.031,37.7697326,127.9524675
2599,2017,04,04,1940,화요일,2017-04-04,2017,04,04,2115,강원도 철원군 갈말읍 문혜리 산140-4,,입산자 실화,0.1,432,42,42780,42780256,14176484.81,4607766.475,38.2003435,127.3495281
2603,2017,04,08,1328,토요일,2017-04-08,2017,04,08,1517,강원도 영월군 무릉도원면 운학리 산227,,화덕재 비화,0.3,4899,42,42750,42750380,14271265.14,4489712.003,37.3621848,128.2009555
2605,2017,04,10,1120,월요일,2017-04-10,2017,04,10,1400,강원도 원주시 소초면 평장리 산139-8,,숯공장 굴뚝불티 비화,0.2,15449,42,42130,42130310,14248427.85,4498713.5,37.42643,127.995805
2611,2017,04,10,1650,월요일,2017-04-10,2017,04,10,1920,강원도 철원군 서면 자등리 산335-1,,입산자 실화추정,0.01,0,42,42780,42780310,14185241.11,4598272.484,38.1332889,127.4281898
2613,2017,04,12,0840,수요일,2017-04-12,2017,04,12,1049,강원도 철원군 동송읍 상노리 산61,,농산폐기물 소각,0.01,4261,42,42780,42780259,14162846.41,4600495.14,38.1489924,127.2270156
2621,2017,04,13,1112,목요일,2017-04-13,2017,04,13,1400,강원도 춘천시 서면 덕두원리 산99,,담뱃불 실화추정,0.35,6496,42,42110,42110350,14211769.05,4559668.807,37.8601265,127.6650934
2625,2017,04,13,1541,목요일,2017-04-13,2017,04,13,1600,강원도 고성군 거진읍 화포리 291,,전기선 누전추정,0.02,576,42,42820,42820253,14296851.56,4643199.111,38.4500455,128.4308017
2635,2017,04,20,1130,목요일,2017-04-20,2017,04,20,1208,강원도 고성군 죽왕면 오봉리 산121-1,,입산자 실화,0.01,1812,42,42820,42820320,14302877.95,4626609.522,38.33324289999999,128.4849399
2638,2017,04,23,0308,일요일,2017-04-23,2017,04,23,0430,강원도 횡성군 횡성읍 조곡리 산30-2,,원인미상,0.06,134,42,42730,42730250,14251699.22,4508515.257,37.4963137,128.0251975
2640,2017,04,23,1311,일요일,2017-04-23,2017,04,23,1420,강원도 영월군 중동면 연상리 산133,,쓰레기 소각,0.2,1139,42,42750,42750310,14316443.95,4463778.434,37.176759,128.6068396
2641,2017,04,23,1403,일요일,2017-04-23,2017,04,23,1601,강원도 양구군 양구읍 도사리 산257,,원인미상,0.12,3567,42,42800,42800250,14248623.8,4604538.539,38.1775508,127.9975663
2643,2017,04,23,1535,일요일,2017-04-23,2017,04,23,1607,강원도 속초시 설악동 산40,,전기누전(전선피복 노출),0.01,7180,42,42210,42210112,14299950.19,4606545.421,38.1626862,128.4849533
2650,2017,04,24,1359,월요일,2017-04-24,2017,04,24,1449,강원도 강릉시 연곡면 동덕리 산88,,담뱃불 실화,0.3,7158,42,42150,42150370,14341065.91,4557368.166,37.8436905,128.8279877
2660,2017,04,26,1520,수요일,2017-04-26,2017,04,26,2100,강원도 홍천군 화촌면 풍천리 산77,,입산자 실화,0.2,0,42,42720,42720310,14237364.05,4555696.395,37.83182910000001,127.8964079
2676,2017,04,28,1400,금요일,2017-04-28,2017,04,28,2000,강원도 홍천군 내면 광원리 산197-1,,입산자 실화,0.1,0,42,42720,42720390,14298112.74,4558859.227,37.8085657,128.4668799
2679,2017,04,29,0520,토요일,2017-04-29,2017,04,29,0713,강원도 고성군 거진읍 송강리 산24-1,,입산자 실화,0.1,815,42,42820,42820253,14292160.22,4642465.07,38.4446359,128.3878736
2682,2017,04,29,1224,토요일,2017-04-29,2017,04,29,1345,강원도 춘천시 서면 방동리 산90,,입산자 실화,0.02,3186,42,42110,42110350,14210638.72,4566181.275,37.9061819,127.6563375
2687,2017,04,29,1557,토요일,2017-04-29,2017,04,29,1650,강원도 춘천시 동산면 원창리 산339,,입산자 실화추정,0.01,4890,42,42110,42110320,14225236.96,4550922.536,37.79795010000001,127.7874779
2689,2017,04,29,1833,토요일,2017-04-29,2017,04,30,1100,강원도 춘천시 칠전동 산97,,조사중,0.5,0,42,42110,42110126,14213150.03,4557240.446,37.8427853,127.678901
2699,2017,05,01,1230,월요일,2017-05-01,2017,05,01,1630,강원도 인제군 남면 관대리 산37-1,,조사중,0.5,0,42,42810,42810310,14261719.02,4588600.899,38.0649197,128.1152044
2702,2017,05,01,1440,월요일,2017-05-01,2017,05,01,1555,강원도 고성군 간성읍 탑동리 산11-1,,입산자 실화추정,0.05,8031,42,42820,42820250,14301947.92,4630756.506,38.362461,128.4765859
2704,2017,05,02,1230,화요일,2017-05-02,2017,05,02,1330,강원도 원주시 부론면 정산리 산24,,밭두렁 소각,0.1,3015,42,42130,42130350,14224874.96,4461694.05,37.1650231,127.7846555
2706,2017,05,02,1320,화요일,2017-05-02,2017,05,02,1510,강원도 원주시 문막읍 비두리 산201,,입산자 실화,0.05,4756,42,42130,42130250,14232161.56,4471438.986,37.2316045,127.8496843
2707,2017,05,02,1454,화요일,2017-05-02,2017,05,02,2000,강원도 홍천군 내촌면 와야리 산12-2,,"쓰레기 소각(국:0.15, 사:0.15)",0.3,0,42,42720,42720330,14298815.03,4645332.937,37.8131483,128.1637425
2708,2017,05,02,1501,화요일,2017-05-02,2017,05,02,1533,강원도 고성군 거진읍 화포리 산3,,입산자 실화,0.05,1447,42,42820,42820253,14267122.38,4553063.288,38.4650204,128.4484475
2712,2017,05,03,1117,수요일,2017-05-03,2017,05,03,1700,강원도 홍천군 북방면 성동리 산180,,입산자 실화,1.3,35592,42,42720,42720380,14233324.71,4542556.564,37.7385453,127.8601326
2717,2017,05,03,1430,수요일,2017-05-03,2017,05,03,1930,강원도 영월군 상동읍 내덕리 산53-1,,입산자 실화추정,0.5,33955,42,42750,42750253,14334794.39,4458416.97,37.1231203,128.7775615
2721,2017,05,03,1702,수요일,2017-05-03,2017,05,03,1900,강원도 홍천군 북방면 화동리 산32,,농산폐기물 소각(고춧대),0.05,4973,42,42720,42720380,14233699.07,4540031.163,37.7206026,127.8634929
2722,2017,05,03,1719,수요일,2017-05-03,2017,05,03,1830,강원도 영월군 영월읍 팔괴리 산1-2,,입산자 실화추정,0.01,1309,42,42750,42750250,14304210.64,4457774.5,37.1338039,128.4969157
2725,2017,05,03,2027,수요일,2017-05-03,2017,05,03,2350,강원도 영월군 상동읍 내덕리 산53-5,,입산자 실화추정,0.1,5748,42,42750,42750253,14344451.89,4456029.543,37.1231203,128.7775615
2728,2017,05,05,1450,금요일,2017-05-05,2017,05,05,1605,강원도 정선군 남면 낙동리 산120-4,,입산자 실화,0.1,8807,42,42770,42770320,14329628.37,4485082.247,37.3291241,128.7252405
2729,2017,05,05,1504,금요일,2017-05-05,2017,05,05,1545,강원도 강릉시 왕산면 대기리 산189,,입산자 실화,0.05,4788,42,42150,42150320,14335613.32,4522500.518,37.5819651,128.7568297
2732,2017,05,05,1823,금요일,2017-05-05,2017,05,05,2030,강원도 홍천군 동면 월운리 산50,,입산자 실화추정,0.01,1118,42,42720,42720350,14241140.79,4527774.948,37.6334614,127.9303462
2734,2017,05,06,1142,토요일,2017-05-06,2017,05,09,1120,강원도 삼척시 도계읍 점리 산83,,입산자 실화,765.12,7104000,42,42230,42230250,14361793.67,4474594.525,37.2541702,129.0141862
2739,2017,05,06,1359,토요일,2017-05-06,2017,05,06,1436,강원도 고성군 간성읍 신안리 산30,,입산자 실화추정,0.02,848,42,42820,42820250,14300949.81,4633644.238,38.3827971,128.4676164
2743,2017,05,06,1424,토요일,2017-05-06,2017,05,06,1630,강원도 홍천군 내촌면 도관리 산126,,주택화재 비화,0.47,7712,42,42720,42720330,14259718.68,4552037.681,37.8058653,128.097232
2745,2017,05,06,1532,토요일,2017-05-06,2017,05,09,0634,강원도 강릉시 성산면 어흘리 산293-1,,입산자 실화,252,6192000,42,42150,42150310,14338429.01,4540300.228,37.7225142,128.8043009
2753,2017,05,07,1914,일요일,2017-05-07,2017,05,07,2115,강원도 춘천시 북산면 오항리 산43,,입산자 실화추정,0.1,1542,42,42110,42110380,14236350.85,4578020.931,37.9900538,127.8873161
2754,2017,05,07,1947,일요일,2017-05-07,2017,05,07,2245,강원도 춘천시 북산면 조교리 산1-37,,원인미상(조사중),0.01,0,42,42110,42110380,14245253.56,4565713.445,37.9553699,127.9206207
2756,2017,05,08,1450,월요일,2017-05-08,2017,05,08,1900,강원도 홍천군 홍천읍 상오안리 산2,,입산자 실화,0.05,0,42,42720,42720250,14229637.64,4526826.951,37.6357344,127.8222378
2757,2017,05,09,1450,화요일,2017-05-09,2017,05,09,1615,강원도 원주시 흥업면 흥업리 산13-4,,입산자 실화,0.03,4637,42,42130,42130370,14102284.18,4183606.182,37.2945146,127.9262837
2761,2017,05,19,1332,금요일,2017-05-19,2017,05,19,1435,강원도 강릉시 왕산면 대기리 산697,,담뱃불 실화,0.06,5064,42,42150,42150320,14240688.85,4480238.48,37.5819651,128.7568297
2763,2017,05,20,1110,토요일,2017-05-20,2017,05,20,1255,강원도 양구군 동면 월운리 62-3,,입산자 실화추정,0.1,4003,42,42800,42800320,14254294.18,4610510.518,38.2197122,128.0485037
2764,2017,05,20,1239,토요일,2017-05-20,2017,05,20,1419,강원도 정선군 임계면 덕암리 산50-1,,입산자 실화추정,0.04,0,42,42770,42770350,14341357.1,4492875.243,37.3847694,128.8306015
2765,2017,05,20,1525,토요일,2017-05-20,2017,05,20,1644,강원도 화천군 사내면 삼일리 산196,,입산자 실화추정,0.06,3582,42,42790,42790340,14193693.47,4582068.362,38.0187034,127.5041161
2770,2017,05,21,1230,일요일,2017-05-21,2017,05,21,1700,강원도 인제군 상남면 상남리 산385-1,,입산자 실화,0.1,0,42,42810,42810350,14275720.22,4565116.859,37.8624543,128.2199006
2779,2017,05,25,1040,목요일,2017-05-25,2017,05,25,1500,강원도 춘천시 서면 방동리 산93,,조사중,0.05,0,42,42110,42110350,14208893.61,4566127.873,37.9058064,127.6406644
2782,2017,05,26,1107,금요일,2017-05-26,2017,05,26,1230,강원도 춘천시 서면 당림리 산9-2,,쓰레기 소각,0.01,2313,42,42110,42110350,14207689.25,4554326.251,37.8221089,127.6298455
2786,2017,05,27,1103,토요일,2017-05-27,2017,05,27,1225,강원도 평창군 용평면 노동리 산1-2,,쓰레기 소각(녹차티백),0.08,95,42,42760,42760350,14298283.46,4535400.706,37.6872009,128.4512023
2803,2017,06,01,0050,목요일,2017-06-01,2017,06,01,0305,강원도 원주시 문막읍 포진리 산35-1,,담뱃불 실화추정,0.3,1053,42,42130,42130250,14228799.84,4479595.271,37.2899168,127.8194835
2807,2017,06,02,1450,금요일,2017-06-02,2017,06,02,1600,강원도 강릉시 옥계면 북동리 산202,,입산자 실화,0.06,867,42,42150,42150350,14356855.03,4527412.297,37.630881,128.9698208
2811,2017,06,03,0530,토요일,2017-06-03,2017,06,03,1700,강원도 춘천시 동면 상걸리 산53,,조사중,0.2,0,42,42110,42110310,14231007.27,4558472.95,37.8515271,127.8393158
2816,2017,06,04,1050,일요일,2017-06-04,2017,06,04,1600,강원도 인제군 인제읍 고사리 산1,,입산자 실화,0.3,0,42,42810,42810250,14274630.3,4585782.562,38.044987,128.2311907
2817,2017,06,04,1158,일요일,2017-06-04,2017,06,04,1345,강원도 화천군 사내면 용담리 산47,,입산자 실화추정,0.1,4854,42,42790,42790340,14198870.12,4586765.385,38.0519372,127.5506215
2819,2017,06,04,1220,일요일,2017-06-04,2017,06,04,1408,강원도 철원군 근남면 잠곡리 산133-1,,담뱃불 실화추정,0.01,0,42,42780,42780320,14190682.23,4601884.263,38.15880689999999,127.4770687
2849,2017,06,17,1745,토요일,2017-06-17,2017,06,17,1900,강원도 횡성군 강림면 월현리 산285,,논밭두렁 소각,0.01,582,42,42730,42730380,14267267.49,4488454.572,37.3532088,128.1650428
2858,2017,06,19,1202,월요일,2017-06-19,2017,06,19,1300,강원도 강릉시 왕산면 대기리 산311,,입산자 실화,0.01,1693,42,42150,42150320,14335924.73,4521318.567,37.5819651,128.7568297
2866,2017,06,19,2114,월요일,2017-06-19,2017,06,19,0000,강원도 홍천군 서석면 수하리 산257,,쓰레기 소각,0.24,4183,42,42720,42720340,14265898.3,4543149.924,37.768125,128.1850253
2870,2017,06,21,1437,수요일,2017-06-21,2017,06,21,1610,강원도 철원군 갈말읍 문혜리 산92-2,,입산자 실화,0.01,1473,42,42780,42780256,14178896.38,4605085.131,38.1814115,127.3711935
2876,2017,06,22,1652,목요일,2017-06-22,2017,06,22,1800,강원도 양양군 서면 내현리 산62,,입산자 실화(조사중),0.02,4483,42,42830,42830310,14316539.7,4582138.98,38.0194538,128.6070559
2882,2017,06,23,1430,금요일,2017-06-23,2017,06,23,1800,강원도 횡성군 갑천면 병지방리 산1,,입산자 실화,0.01,0,42,42730,42730340,14259798.05,4525736.815,37.6189603,128.0979454
2913,2017,11,16,1315,목요일,2017-11-16,2017,11,16,1430,강원도 평창군 평창읍 대하리 산86,,입산자 실화,0.09,3443,42,42760,42760250,14289567.23,4483195.257,37.3156431,128.365366
2917,2017,11,16,1508,목요일,2017-11-16,2017,11,16,1613,강원도 홍천군 내촌면 물걸리 산275-1,,입산자 실화,0.5,8737,42,42720,42720330,14262430.41,4543501.702,37.7452593,128.1215937
2923,2017,11,19,1336,일요일,2017-11-19,2017,11,19,1430,강원도 정선군 여량면 유천리 산267,,입산자 실화,0.05,1680,42,42770,42770370,14328583.56,4511171.163,37.5019304,128.7080385
2928,2017,11,20,1158,월요일,2017-11-20,2017,11,20,1403,강원도 영월군 남면 조전리 산19,,쓰레기 소각(생활),0.3,0,42,42750,42750340,14299431.66,4455365.463,37.1165542,128.4539804
2943,2017,11,30,1114,목요일,2017-11-30,2017,11,30,1220,강원도 홍천군 홍천읍 장전평리 산82,,쓰레기 소각,0.05,660,42,42720,42720250,14237314.53,4530051.668,37.6496575,127.8959735
2954,2017,12,02,2104,토요일,2017-12-02,2017,12,02,2330,강원도 원주시 부론면 손곡리 산184,,석재공장 급수용 펌프모터 과열,0.2,904,42,42130,42130350,14226554.73,4474043.626,37.2502325,127.7993174
2956,2017,12,04,1938,월요일,2017-12-04,2017,12,04,2300,강원도 양양군 현북면 하광정리 산72,,주택화재,1.86,35316,42,42830,42830330,14328955.26,4581813.642,38.0168984,128.719197
2988,2017,12,22,1650,금요일,2017-12-22,2017,12,22,2100,강원도 양양군 서면 논화리 산42,,영농부산물 소각,0.81,20442,42,42830,42830310,14312900.5,4588774.952,38.0661501,128.5749747
3001,2018,01,02,2040,화요일,2018-01-02,2018,01,02,2230,강원도 원주시 소초면 교항리 산128-1,,입산자 실화,0.01,988,42,42130,42130310,14251973.7,4499319.21,37.4307472,128.0276783
3010,2018,01,10,2138,수요일,2018-01-10,2018,01,10,2240,강원도 양양군 양양읍 월리 산11,,주택화재 비화,0.02,2376,42,42830,42830250,14319101.58,4589138.622,38.068718,128.6306943
3012,2018,01,14,1953,일요일,2018-01-14,2018,01,15,0530,강원도 양양군 양양읍 화일리 산207외 14필,,주택화재 비화,17.73,937302,42,42830,42830250,14310340.51,4594154.132,38.104187,128.5519894
3031,2018,02,01,1340,목요일,2018-02-01,2018,02,01,1700,강원도 홍천군 서석면 검산리 산102,,입산자 실화,0.02,5529,42,42720,42720340,14275657.81,4542806.972,37.7403152,128.2404219
3050,2018,02,08,1500,목요일,2018-02-08,2018,02,08,1755,강원도 양구군 남면 가오작리 산1,,입산자 실화,0.06,5318,42,42800,42800310,14257590.32,4598413.469,38.1342898,128.0781301
3052,2018,02,09,0615,금요일,2018-02-09,2018,02,09,0800,강원도 춘천시 동산동 조양리 산7-11,,(화목)보일러 재투기,0.01,1106,42,42110,42110320,14230811.3,4544155.068,37.7499014,127.8375727
3063,2018,02,11,1325,일요일,2018-02-11,2018,02,11,1439,강원도 영월군 중동면 녹전리 산227-1외1,,주택화재 비화,0.2,9044,42,42750,42750310,14324909.78,4460338.741,37.1521863,128.6828598
3069,2018,02,11,1614,일요일,2018-02-11,2018,02,13,2100,강원도 삼척시 노곡면 하마읍리 산66,,주택화재 비화,161.14,7740405,42,42230,42230330,14381718.57,4477515.989,37.2753433,129.1926476
3070,2018,02,11,2127,일요일,2018-02-11,2018,02,13,2100,강원도 삼척시 도계읍 황조리 산106외34필,,원인미상,76.46,3542827,42,42230,42230250,14369727.23,4468238.614,37.2087085,129.0854649
3073,2018,02,12,1212,월요일,2018-02-12,2018,02,12,1350,강원도 횡성군 공근면 가곡리 산82,,(화목)보일러 재투기,0.1,5357,42,42730,42730360,14246346.38,4519157.5,37.5721302,127.9771244
3092,2018,02,16,1411,공요일,2018-02-16,2018,02,16,1520,강원도 평창군 평창읍 유동리 산22,,성묘객 실화추정,0.5,18452,42,42760,42760250,14290763.42,4488548.276,37.3538801,128.3761255
3114,2018,02,19,1503,월요일,2018-02-19,2018,02,19,1630,강원도 원주시 부론면 노림리 산41-2,,폐축사 화재,0.5,15770,42,42130,42130350,14224570.96,4474933.288,37.2565955,127.7815095
3122,2018,02,20,1556,화요일,2018-02-20,2018,02,20,1728,강원도 정선군 신동읍 운치리 879임,,농산부산시물 소각,0.1,6756,42,42770,42770259,14318009.87,4474409.803,37.2528541,128.6208837
3181,2018,03,14,1434,수요일,2018-03-14,2018,03,14,1530,강원도 춘천시 온의동 산35-1,,농산폐기물 소각,0.2,6595,42,42110,42110121,14217134.48,4560285.777,37.8643878,127.7147105
3187,2018,03,22,1430,목요일,2018-03-22,2018,03,22,1620,강원도 춘천시 남산동1가 방하리 산131-2외 2필지,,주택화재 비화,1.1,34421,42,42110,42110400,14206000.86,4546750.249,37.77727369999999,127.5398473
3197,2018,03,25,1955,일요일,2018-03-25,2018,03,25,2216,강원도 원주시 태장동 573-2,,입산자 실화,0.3,12364,42,42130,42130112,14244003.67,4491938.949,37.3780881,127.9560789
3198,2018,03,25,2120,일요일,2018-03-25,2018,03,25,2300,강원도 삼척시 근덕면 교곡리 산200,,주택화재 비화,0.2,9638,42,42230,42230310,14383334.37,4489184.504,37.358417,129.2077091
3214,2018,03,28,0619,수요일,2018-03-28,2018,03,28,2200,강원도 고성군 간성읍 탑동리 산19,,전선단락(추정),356.85,22107972,42,42820,42820250,14300992.23,4630046.581,38.3574563,128.4680093
3242,2018,04,01,1300,일요일,2018-04-01,2018,04,01,1520,강원도 철원군 동송읍 상노리 산75,,칡 채취 중 담뱃불 투기,0.1,7662,42,42780,42780259,14159759.3,4602682.068,38.1644615,127.1992952
3265,2018,04,09,1436,월요일,2018-04-09,2018,04,09,1830,강원도 삼척시 원덕읍 노곡리 산77-3외3개소,,원인미상,0.3,34478,42,42230,42230253,14397236.5,4469650.543,37.2188151,129.3325858
3278,2018,04,13,1251,금요일,2018-04-13,2018,04,13,1500,강원도 춘천시 동면 품걸리 산1-1,,쓰레기 소각,0.02,6095,42,42110,42110310,14239749.48,4560555.384,37.8662945,127.9178624
3296,2018,04,19,1930,목요일,2018-04-19,2018,04,20,0700,강원도 양양군 현남면 정자리 산58-1,,원인미상,13.08,356550,42,42830,42830340,14327939.45,4574333.702,37.9639438,128.710087
3298,2018,04,20,1338,금요일,2018-04-20,2018,04,20,1750,강원도 평창군 대관령면 수하리 산1,,입산자 담뱃불 실화추정,0.08,13235,42,42760,42760380,14326143.09,4524741.072,37.6118729,128.6939455
3307,2018,04,21,1048,토요일,2018-04-21,2018,04,21,1204,강원도 화천군 간동면 구만리 산65-1,,입산자 실화,0.15,5125,42,42790,42790310,14225044.62,4591754.553,38.0872202,127.7857673
3310,2018,04,21,1135,토요일,2018-04-21,2018,04,21,2300,강원도 인제군 인제읍 합강리 산18-1,,입산자 실화,3,129424,42,42810,42810250,14267300.39,4593181.587,38.0973111,128.1653512
3317,2018,04,21,1638,토요일,2018-04-21,2018,04,21,1840,강원도 춘천시 서면 덕두원리 산164-3,,입산자 실화,0.5,21046,42,42110,42110350,14211040.96,4556918.11,37.84040830000001,127.6599731
3319,2018,04,21,2135,토요일,2018-04-21,2018,04,22,0050,강원도 원주시 문막읍 대둔리 산35,,원인미상,0.5,16833,42,42130,42130250,14222383.31,4477073.231,37.2718868,127.7618624
3334,2018,06,01,1430,금요일,2018-06-01,2018,06,01,1800,강원도 춘천시 신북면 발산리 산32-1,,입산자 실화,0.01,7603,42,42110,42110250,14223668.93,4578161.979,37.9448674,127.171035
3350,2018,06,21,1159,목요일,2018-06-21,2018,06,21,1400,강원도 삼척시 노곡면 하마읍리 산66,,쓰레기 소각,0.01,4758,42,42230,42230330,14381718.57,4477515.989,37.2753433,129.1926476
3360,2018,06,22,1500,금요일,2018-06-22,2018,06,22,1930,강원도 양구군 남면 원리 산2-1,,입산자 실화,0.05,7387,42,42800,42800310,14254855.2,4587407.901,38.0564765,128.0535602
3361,2018,06,22,1802,금요일,2018-06-22,2018,06,23,2330,강원도 인제군 남면 관대리 산37-1,,입산자 실화,0.54,32414,42,42810,42810310,14261717.94,4588600.33,38.0649197,128.1152044
3364,2018,06,23,1420,토요일,2018-06-23,2018,06,23,2000,강원도 춘천시 북산면 추곡리 산261,,입산자 실화,0.01,5751,42,42110,42110380,14233832.4,4582232.169,38.0198606,127.8647082
3373,2018,06,24,1642,일요일,2018-06-24,2018,06,24,2000,강원도 홍천군 북방면 화동리 산47,,입산자 실화,1,33334,42,42720,42720380,14233826.28,4539090.618,37.71391879999999,127.8646561
3374,2018,06,24,1730,일요일,2018-06-24,2018,06,24,2000,강원도 홍천군 내촌면 화상대리 산46-1,,입산자 실화,0.15,6305,42,42720,42720330,14254987.78,4549601.173,37.78857989999999,128.0547502
3386,2018,07,29,1348,일요일,2018-07-29,2018,07,29,1900,강원도 춘천시 남면 가정리 산88,,예초기 과열추정,0.86,32145,42,42110,42110340,14200390.8,4543463.823,37.7449839,127.5642938
3392,2018,07,31,1504,화요일,2018-07-31,2018,07,31,1721,강원도 원주시 부론면 정산리 산106-2,,산업현장 담뱃불 실화추정,0.2,9093,42,42130,42130350,14226209.8,4467994.855,37.2069448,127.7962753
3393,2018,08,01,0851,수요일,2018-08-01,2018,08,01,1300,강원도 춘천시 동면 품걸리 산1-1,,조명탄 발화(조사중),0.1,12466,42,42110,42110310,14239749.48,4560555.384,37.8662945,127.9178624
3399,2018,08,03,1028,금요일,2018-08-03,2018,08,03,1310,강원도 횡성군 우천면 정금리 산131,,입산자 실화추정,1.04,37229,42,42730,42730310,14257976.49,4511308.955,37.5162161,128.081611
3405,2018,08,05,1635,일요일,2018-08-05,2018,08,05,1810,강원도 홍천군 동면 월운리 산13-1,,입산자 실화,0.03,2206,42,42720,42720350,14242069.71,4527975.075,37.634884,127.9387092
3406,2018,08,05,1828,일요일,2018-08-05,2018,08,05,1933,강원도 강릉시 왕산면 고단리 산92-1,,입산자 실화추정,0.02,2938,42,42150,42150320,14342619.49,4513373.082,37.5309479,128.8419427
3414,2018,08,15,1220,공요일,2018-08-15,2018,08,15,1400,강원도 횡성군 안흥면 상안리 산201,,입산자 실화,0.25,8957,42,42730,42730320,14269398.54,4497879.746,37.4204833,128.1841986
3421,2018,08,17,1346,토요일,2018-08-17,2018,08,17,1820,강원도 춘천시 동면 월곡리 산33 외 11,,입산자 실화추정,9.4,334642,42,42110,42110310,14227735.21,4569787.588,37.9316956,127.809849
3445,2018,10,04,1330,목요일,2018-10-04,2018,10,04,1520,강원도 인제군 남면 남전리 산226-1,,입산자 실화,0.01,2402,42,42810,42810310,14267464.47,4579900.62,38.0033628,128.1668271
3455,2018,11,22,1424,목요일,2018-11-22,2018,11,22,1525,강원도 철원군 서면 자등리 산487,,입산자 실화추정,0.1,3859,42,42780,42780310,14185884.76,4608780.925,38.2075044,127.4339859
3458,2018,11,23,0952,금요일,2018-11-23,2018,11,23,1120,강원도 삼척시 근덕면 초곡리 산1,,쓰레기 소각,0.1,5447,42,42230,42230310,14393206.63,4482525.974,37.3108558,129.2963876
3459,2018,11,26,0630,월요일,2018-11-26,2018,11,26,0725,강원도 삼척시 근덕면 초곡리 산17-5,,방화 추정,0.03,2531,42,42230,42230310,14393088.63,4481513.682,37.3036288,129.2953327
3476,2018,12,22,1417,토요일,2018-12-22,2018,12,22,1530,강원도 평창군 진부면 척천리 산18임,,쓰레기 소각,0.05,2664,42,42760,42760360,14308838.36,4536594.557,37.6961781,128.5384946
3487,2018,12,28,2043,금요일,2018-12-28,2018,12,29,1600,강원도 삼척시 미로면 하정리 산57,,주택화재,27,999755,42,42230,42230340,14373032.2,4493186.636,37.3869918,129.1151568
3498,2019,01,01,1612,화요일,2019-01-01,2019,01,02,1720,강원도 양양군 서면 송천리 산31-1,,담뱃불 실화추정,20,1451887,42,42830,42830310,14311385.02,4586099.978,38.0468911,128.5618917
3524,2019,01,10,1117,목요일,2019-01-10,2019,01,10,1205,강원도 고성군 토성면 운봉리 522-2,,재 투기,0.5,11188,42,42820,42820330,14305380.89,4621407.614,38.3004562,128.5095969
3539,2019,01,19,2240,토요일,2019-01-19,2019,01,19,2345,강원도 강릉시 왕산면 목계리 산17-1,,(화목)보일러 재화재,0.03,923,42,42150,42150320,14344467.95,4529765.802,37.6493269,128.8583899
3540,2019,01,20,1230,일요일,2019-01-20,2019,01,20,1500,강원도 춘천시 서면 현암리 산13,,(화목)보일러 재처리 부주의,1.2,47896,42,42110,42110350,14213729.33,4563742.129,37.8889263,127.6842216
3547,2019,01,22,1230,화요일,2019-01-22,2019,01,22,1715,강원도 태백시 백산동 산54,,입목처분지 벌채작업 중 기계톱 불씨,0.1,4681,42,42190,42190113,14367630.08,4460067.79,37.1504351,129.0717315
3556,2019,01,24,1548,목요일,2019-01-24,2019,01,24,1900,강원도 인제군 서화면 천도리 산175 외 1필,,원인미상,1,38610,42,42810,42810340,14270123,4611386.674,38.2236635,128.1970347
3569,2019,01,26,1415,토요일,2019-01-26,2019,01,26,1532,강원도 평창군 방림면 운교리 산238,,(화목)보일러 재 방치,0.05,1542,42,42760,42760320,14280705.92,4498077.382,37.4227358,128.2861973
3573,2019,01,27,1422,일요일,2019-01-27,2019,01,27,1730,강원도 춘천시 신북면 유포리 산7-1,,담뱃불 실화,2,142957,42,42110,42110250,14224637.3,4573300.05,37.9570326,127.7817474
3577,2019,01,27,1609,일요일,2019-01-27,2019,01,27,1920,강원도 원주시 신림면 신림리 산14,,입산자 실화,0.2,6060,41,41800,41800310,14141823.39,4584711.94,37.2419243,128.1018266
3581,2019,01,27,1858,일요일,2019-01-27,2019,01,27,2025,강원도 원주시 신림면 신림리 산14,,입산자 실화,0.2,5919,42,42130,42130390,14260208.56,4472870.408,37.2419243,128.1018266
3588,2019,01,29,1258,화요일,2019-01-29,2019,01,29,1430,강원도 횡성군 청일면 춘당리 산234외2,,쓰레기 소각,0.4,11488,42,42730,42730350,14265502.35,4523858.606,37.605677,128.1491617
3598,2019,01,30,1623,수요일,2019-01-30,2019,01,30,2000,강원도 동해시 신흥동 산292-1,,굴삭기 화재,0.5,21779,42,42170,42170134,14359251.18,4510250.101,37.5094508,128.9930782
3599,2019,01,30,1720,수요일,2019-01-30,2019,01,30,1830,강원도 홍천군 화촌면 송정리 산43,,원인미상,0.05,1520,42,42720,42720310,14241498.75,4542048.393,37.7351056,127.9334588
3658,2019,02,27,1134,수요일,2019-02-27,2019,02,27,1250,강원도 평창군 용평면 장평리 산217-1,,쓰레기 소각,0.1,2919,42,42760,42760350,14294628.32,4523680.717,37.6041239,128.4068246
3659,2019,02,27,1412,수요일,2019-02-27,2019,02,27,1700,강원도 춘천시 서면 서상리 산130,,농산폐기물 소각,1,29080,42,42110,42110350,14210202.62,4570406.202,37.9366235,127.6533039
3675,2019,03,02,1447,토요일,2019-03-02,2019,03,02,1710,강원도 춘천시 남산면 방하리 산133-1,,입산자 실화,0.02,2378,42,42110,42110400,14197828.79,4547873.652,37.775948,127.5412965
3676,2019,03,02,1608,토요일,2019-03-02,2019,03,02,1900,강원도 화천군 화천면 신읍리 산249,,창고화재 추정,0.4,28520,42,42790,42790330,14212354.76,4601567.009,38.1600257,127.6797817
3689,2019,03,04,1240,월요일,2019-03-04,2019,03,04,1800,강원도 홍천군 동면 노천리 산10-51,,쓰레기 소각,0.6,23854,42,42720,42720350,14257435.59,4533418.5,37.6744397,128.074478
3712,2019,03,08,1715,금요일,2019-03-08,2019,03,08,1830,강원도 홍천군 서석면 검산리 산16-1,,(화목)보일러 재 처리불량,0.02,635,42,42720,42720340,14275139.84,4539093.573,37.7138446,128.2358958
3715,2019,03,09,0750,토요일,2019-03-09,2019,03,09,0900,강원도 강릉시 성산면 관음리 산296-2,,산림부산물 소각,0.1,2889,42,42150,42150310,14340776.82,4541997.579,37.7344379,128.8253752
3729,2019,03,12,1500,화요일,2019-03-12,2019,03,12,1620,강원도 춘천시 동면 지내리 산32-1,,원인미상,0.1,2936,42,42110,42110310,14225746.16,4566682.937,37.9125251,127.7895942
3739,2019,03,13,1859,수요일,2019-03-13,2019,03,13,2145,강원도 춘천시 신북면 용산리 산60,,쓰레기 소각,0.02,681,42,42110,42110250,14217355.89,4571611.78,37.9448726,127.7168983
3755,2019,03,17,1240,일요일,2019-03-17,2019,03,17,1530,강원도 속초시 도문동 산234,,예초기 조작 과실,1,63336,42,42210,42210111,14311258.78,4603528.92,38.1704762,128.5602537
3808,2019,04,01,1900,월요일,2019-04-01,2019,04,01,2015,강원도 홍천군 서면 길곡리 산43,,잔디소각,0.02,643,42,42720,42720370,14202220.12,4529833.991,37.6479365,127.5807898
3831,2019,04,03,1422,수요일,2019-04-03,2019,04,03,1730,강원도 횡성군 갑천면 포동리 산83-2,,숯가공 재처리 부주의,0.7,24879,42,42730,42730340,14259980.13,4513168.701,37.5297359,128.1005689
3842,2019,04,04,1330,목요일,2019-04-04,2019,04,04,1405,강원도 횡성군 횡성면 모평리 산38-1,,성묘객 실화(우편물 소각),0.05,1481,42,42730,42730250,14244580.3,4502806.477,37.4538664,127.9627936
3848,2019,04,04,1445,목요일,2019-04-04,2019,04,06,1800,강원도 인제군 남면 남전리 산168외67필,,쓰레기 소각,345,11318423,42,42810,42810310,14261653.93,4578877.855,38.0272951,128.1298691
3853,2019,04,04,1917,목요일,2019-04-04,2019,04,05,1800,강원도 고성군 토성면 원암리 산89-2,,"특고압 전선 아크 불티(고성:936.14,속초:330.48)",1227,130956806,42,42820,42820330,14304873.16,4608605.541,38.2057068,128.5027892
3856,2019,04,04,2346,목요일,2019-04-04,2019,04,05,2130,강원도 강릉시 옥계면 남양리 산171,,"신당 전기초 합선(강릉:1033.07,동해:227.08)",1260,109489936,42,42150,42150350,14361347.66,4518731.099,37.5720017,129.0112051
3878,2019,04,07,1039,일요일,2019-04-07,2019,04,07,1221,강원도 영월군 김삿갓면 와석리 산62,,농산폐기물 소각,0.3,8768,43,43800,43800330,14318607.65,4448236.394,37.0782683,128.6066029
3889,2019,04,08,1445,월요일,2019-04-08,2019,04,08,1800,강원도 인제군 남면 관대리 산37-1,,입산자 실화추정,0.5,14799,42,42810,42810310,14262007.14,4582446.954,38.0649197,128.1152044
3897,2019,04,12,1215,금요일,2019-04-12,2019,04,12,1231,강원도 양구군 양구읍 웅진리 산48-1,,방화,0.3,867,43,43111,43111130,14198114.77,4386225.312,38.0458756,127.9541577
3899,2019,04,12,1339,금요일,2019-04-12,2019,04,12,1442,강원도 양구군 양구읍 웅진리 산48-1,,방화,0.3,8629,42,42800,42800250,14243792.38,4585899.535,38.0458756,127.9541577
3912,2019,04,16,1144,화요일,2019-04-16,2019,04,16,1800,강원도 고성군 현내면 송현리 126-2(임),,입산자 실화 추정,0.2,13508,42,42820,42820310,14291520.95,4660057.148,38.57440769999999,128.3862885
3916,2019,04,16,1614,화요일,2019-04-16,2019,04,16,1650,강원도 홍천군 서면 반곡리 산63,,공업사 용접,0.08,2311,42,42720,42720370,14210836.13,4536579.503,,
3923,2019,04,17,1352,수요일,2019-04-17,2019,04,17,1451,강원도 영월군 영월읍 삼옥리 산53,,담뱃불 추정,0.2,5803,42,42750,42750250,14306123.62,4470998.209,37.2296143,128.5102354
3947,2019,04,22,1219,월요일,2019-04-22,2019,04,22,1331,강원도 화천군 사내면 용담리 산424,,쓰레기 소각(폐목재),0.09,7605,42,42790,42790340,14200333.25,4586200.484,38.0599182,127.553534
3957,2019,05,02,1421,목요일,2019-05-02,2019,05,02,1625,강원도 춘천시 남산 강촌리 287-5,,입산자 실화추정,0.2,5940,42,42110,42110340,14199521.62,4543927.557,37.8101716,127.629654
3958,2019,05,02,1628,목요일,2019-05-02,2019,05,02,1710,강원도 횡성군 성원면 유현리 산22,,공장화재(배전판 누선),0.03,2870,42,42730,42730370,14236412.01,4510369.103,37.5150434,127.8874415
3961,2019,05,03,1444,금요일,2019-05-03,2019,05,03,1601,강원도 춘천시 석사동 산1-1,,입산자 실화추정,0.05,1512,42,42110,42110124,14222553.07,4560689.203,37.8685719,127.7637356
3964,2019,05,05,0322,일요일,2019-05-05,2019,05,05,0445,강원도 춘천시 석사동 산1-1,,입산자 실화추정,0.05,1520,42,42110,42110124,14222557.3,4560715.662,37.8685719,127.7637356
3965,2019,05,05,1140,공휴일,2019-05-05,2019,05,05,1230,강원도 횡성군 둔내면 삽교리 산222,,입산자 실화,0.15,4303,42,42760,42760340,14285537.19,4534692.239,37.5276029,128.2642559
3966,2019,05,05,1425,공휴일,2019-05-05,2019,05,05,2200,강원도 인제군 남면 소치리 산21,,숯불 재 투기,5.2,151034,42,42810,42810350,14271297.87,4567573.413,37.9471323,128.142417
3974,2019,05,06,1408,월요일,2019-05-06,2019,05,06,1458,강원도 홍천군 화촌면 군업리 산317-1,,입산자 실화추정,0.02,680,42,42720,42720310,14259058.4,4540614.86,37.7504001,127.994277
3977,2019,05,06,1750,월요일,2019-05-06,2019,05,06,1920,강원도 원주시 소초면 흥양리 산187-1,,입산자 실화,0.1,2963,42,42130,42130310,14252645.06,4490576.694,37.3622807,128.0117988
3981,2019,05,07,1540,화요일,2019-05-07,2019,05,07,1830,강원도 홍천군 서석면 풍암리 산53,,용접불씨,1.3,76784,42,42720,42720340,14269303.02,4540893.81,37.7265248,128.1833817
3993,2019,05,10,0934,금요일,2019-05-10,2019,05,10,1200,강원도 고성군 죽왕면 구성리 산1외 1,,원인미상,0.54,8899,42,42820,42820320,14299973.55,4623893.695,38.3141862,128.4591191
4008,2019,05,11,1750,토요일,2019-05-11,2019,05,11,1920,강원도 홍천군 서면 두미리 산260,,취사행위,0.08,10951,42,42720,42720370,14210453.42,4535019.841,37.6849833,127.654793
4031,2019,05,16,1555,목요일,2019-05-16,2019,05,16,1730,강원도 평창군 대관령면 유천리 산1,,원인미상,0.02,705,42,42760,42760380,14318503.68,4536670.527,37.6981013,128.6466817
4038,2019,05,19,1420,일요일,2019-05-19,2019,05,19,1451,강원도 강릉시 강동면 하시동리 산192,,입산자 실화,0.01,311,42,42150,42150340,14355710.99,4544025.403,37.7328724,128.9677132
4041,2019,05,23,1005,목요일,2019-05-23,2019,05,23,1230,강원도 정선군 임계면 문래리 산250,,입산자 실화,0.1,10515,47,47920,47920340,14352204.88,4429499.842,37.4063084,128.8607009
4042,2019,05,23,1237,목요일,2019-05-23,2019,05,23,1438,강원도 정선군 임계면 문래리 산250,,입산자 실화,0.1,3075,42,42770,42770350,14344514.03,4496086.756,37.4063084,128.8607009
4045,2019,05,24,1259,금요일,2019-05-24,2019,05,24,1430,강원도 영월군 영월읍 정양리 산260,,입산자 실화추정,0.1,2960,42,42750,42750250,14304365.1,4462688.063,37.1691419,128.4983259
4060,2019,06,04,1414,화요일,2019-06-04,2019,06,04,1526,강원도 정선군 화암면 화암리 산408,,입산자 실화추정,0.2,5868,42,42770,42770360,14337133.44,4486116.596,37.3359517,128.793418
4078,2019,07,07,1604,일요일,2019-07-07,2019,07,07,1710,강원도 횡성군 청일면 갑천리 산352,,화장실 화재,0.07,2042,42,42730,42730350,14268299.26,4516473.546,37.5529884,128.1744558
4079,2019,07,08,0938,월요일,2019-07-08,2019,07,08,1245,강원도 원주시 신림면 성산리 산90-2,,입산자실화,0.1,3128,42,42130,42130390,14260232.27,4476371.432,37.2494732,128.1070946
4082,2019,07,09,1349,화요일,2019-07-09,2019,07,09,1600,강원도 원주시 귀래면 용암리 산20-1,,담뱃불 실화 추정,0.01,458,42,42130,42130360,14231705.42,4464820.213,37.1851687,127.8455679
4084,2019,07,09,1839,화요일,2019-07-09,2019,07,09,2110,강원도 영월군 남면 창원리 산48,,농산폐기물 소각,0.6,17250,42,42750,42750340,14291815.72,4462231.4,37.1651624,128.3859415
4086,2019,08,23,1231,금요일,2019-08-23,2019,08,23,1415,강원도 횡성군 서원면 석화리 산7-1,,풀베기 작업 중 벌집 소각,0.15,9243,42,42730,42730370,14228048.24,4503224.656,37.4586381,127.8129274
4087,2019,08,26,1210,월요일,2019-08-26,2019,08,26,1800,강원도 홍천군 서석면 검산리 산102,,입산자 실화추정,0.08,2544,42,42720,42720340,14277521.19,4542735.603,37.7403152,128.2404219
4109,2019,11,16,1700,토요일,2019-11-16,2019,11,16,1810,강원도 강릉시 구정면 제비리 산264,,입산자실화 추정,0.01,334,42,42150,42150330,14343777.32,4541635.555,37.7320445,128.8531299
4120,2019,12,04,1130,수요일,2019-12-04,2019,12,04,1247,강원도 양구군 양구읍 군량리 222,,농산폐기물 소각,0.1,2961,42,42800,42800250,14245464.62,4602464.738,38.1630191,127.9691061
4121,2019,12,05,1009,목요일,2019-12-05,2019,12,05,1500,강원도 삼척시 도계면 점리 산129-2,,담뱃불 실화,0.1,7187,42,42230,42230250,14361445.51,4473039.188,37.243002,129.0111277
4123,2019,12,06,0859,금요일,2019-12-06,2019,12,06,0950,강원도 춘천시 북산면 추전리 산38-1,,주택화재,0.05,14880,42,42110,42110380,14239296.86,4580944.539,38.0109653,127.9136072
4126,2019,12,11,1625,수요일,2019-12-11,2019,12,11,1800,강원도 인제군 인제읍 덕산리 산22,,군부대 조명탄(신호킷 추정),0.05,1561,42,42810,42810250,14269830.68,4593106.617,38.0965864,128.1883156
4127,2019,12,11,1918,수요일,2019-12-11,2019,12,12,1039,강원도 정선군 북평면 나전리 산1,,원인미상(입산자 담뱃불 실화 추정),2,61467,42,42770,42770340,14319345.59,4504265.971,37.4678425,128.6369429
4136,2019,12,20,1140,금요일,2019-12-20,2019,12,20,1320,강원도 홍천군 홍천면 태학리 산8-10,,쓰레기 소각,0.04,1172,42,42720,42720250,14238716.88,4538637.652,37.7107918,127.9089505
4141,2019,12,24,1211,화요일,2019-12-24,2019,12,24,1422,강원도 평창군 미탄면 백운리 산74,,입산자실화,0.01,415,42,42760,42760310,14308018.83,4486137.317,37.3391788,128.5285494
4144,2020,01,01,1300,공휴일,2020-01-01,2020,01,01,1335,강원도 강릉시 성산면 위촌리 산463-3,,쓰레기소각(생활),0.02,955,42,42150,42150310,14342387.42,4545793.809,37.76155079999999,128.8399189
4148,2019,12,31,0256,화요일,2019-12-31,2019,12,31,0443,강원도 강릉시 죽헌동 산80,,입산자실화 추정,0.1,2957,42,42150,42150133,14343927.16,4548586.598,37.7811603,128.8536378
4149,2019,12,31,0302,화요일,2019-12-31,2019,12,31,0421,강원도 고성군 토성면 신평리 산136-3,,전기요인 추정,0.5,287,42,42820,42820330,14301124.81,4611511.942,38.2256797,128.492015
4150,2020,01,03,1222,금요일,2020-01-03,2020,01,03,1600,강원도 춘천시 서면 오월리 산35-1,,입산자실화,0.7,35684,42,42110,42110350,14209268.18,4577390.206,37.9857119,127.6440323
4151,2020,01,04,1354,토요일,2020-01-04,2020,01,05,1710,강원도 춘천시 신북면 발산리 산30-1 외 7필지,,담뱃불실화,34.26,2197493,42,42110,42110250,14220779.85,4575955.948,37.9448674,127.171035
4152,2020,01,04,1449,토요일,2020-01-04,2020,01,04,1540,강원도 정선군 신동읍 덕천리 산139,,입산자실화(추정),0.04,1885,42,42770,42770259,14313982.71,4475901.54,37.2635723,128.5832687
4156,2020,01,15,1346,수요일,2020-01-15,2020,01,15,1430,강원도 양양군 양양읍 월리 산24-13,,화목보일러불씨추정,0.02,1184,42,42830,42830250,14318454.66,4587720.298,38.0585486,128.6248463
4166,2020,01,23,1258,목요일,2020-01-23,2020,01,23,1354,강원도 횡성군 우천면 하궁리 산154,,원인미상,0.1,6539,42,42730,42730310,14266574.21,4507345.409,37.4879276,128.1582451
4177,2020,01,31,1320,금요일,2020-01-31,2020,01,31,1500,강원도 홍천군 서석면 풍암리 산28,,원인미상,0.01,602,42,42720,42720340,14270815.48,4541014.021,37.7266182,128.1968028
4188,2020,02,08,0705,토요일,2020-02-08,2020,02,08,0754,강원도 춘천시 남산면 백양리 산144-42,,쓰레기소각,0.03,1707,42,42110,42110400,14200581.23,4552472.683,37.80891090000001,127.5658971
4189,2020,02,08,1202,토요일,2020-02-08,2020,02,08,1222,강원도 강릉시 홍제동 산287,,쓰레기소각,0.03,1389,42,42150,42150101,14344298.07,4544215.325,37.7503315,128.8570235
4196,2020,02,09,1848,일요일,2020-02-09,2020,02,09,2004,강원도 원주시 신림면 황둔리 산3,,담뱃불실화추정,0.4,18354,42,42130,42130390,14270684.68,4475163.346,37.2573041,128.194613
4217,2020,02,24,1258,월요일,2020-02-24,2020,02,24,1515,강원도 춘천시 남산면 산수리 산144,,밭두렁소각,0.1,4909,42,42110,42110400,14211536.62,4537369.747,37.7014088,127.664537
